[{"place":{"types":["seafood_restaurant","restaurant","point_of_interest","food","establishment"],"formattedAddress":"No. 88, Zhongshan 1st Rd, Luzhou District, New Taipei City, Taiwan 247","websiteUri":"http://www.hpw.com.tw/","displayName":{"languageCode":"en","text":"Hai Pa Wang Luzhou Restaurant"}},"lat":25.0813902,"lng":121.4783254},{"place":{"types":["fast_food_restaurant","brunch_restaurant","hamburger_restaurant","american_restaurant","restaurant","point_of_interest","food","establishment"],"formattedAddress":"No. 392-1號, Section 4, Sanhe Rd, Sanchong District, New Taipei City, Taiwan 241","websiteUri":"https://www.mcdonalds.com/tw/zh-tw.html","displayName":{"languageCode":"en","text":"McDonald's"}},"lat":25.0792448,"lng":121.4817625},{"place":{"types":["hotel","lodging","restaurant","point_of_interest","food","establishment"],"formattedAddress":"247, Taiwan, New Taipei City, Luzhou District, Jixian Rd, 402號3樓","websiteUri":"http://laclehotel.com.tw/","displayName":{"languageCode":"en","text":"LaCle’ Hotel Taipei"}},"lat":25.0820839,"lng":121.4799862},{"place":{"types":["restaurant","point_of_interest","food","establishment"],"formattedAddress":"241, Taiwan, New Taipei City, Sanchong District, Dazhi St, 173號1樓","websiteUri":"https://www.facebook.com/%E5%8F%B0%E5%8D%97%E6%9E%97%E7%84%A1%E5%88%BA%E8%99%B1%E7%9B%AE%E9%AD%9A-183760528313487/","displayName":{"languageCode":"zh-TW","text":"台南林無刺虱目魚"}},"lat":25.0726615,"lng":121.4898566},{"place":{"types":["restaurant","seafood_restaurant","point_of_interest","food","establishment"],"formattedAddress":"241, Taiwan, New Taipei City, Sanchong District, Renzheng St, 121號1樓","websiteUri":"https://www.facebook.com/pages/category/Food-delivery-service/%E8%AC%80%E9%AD%9A%E8%9D%A6%E4%B9%9F%E8%A0%94-101706868897199/","displayName":{"languageCode":"zh-TW","text":"謀魚蝦也蠔"}},"lat":25.0788173,"lng":121.4918764},{"place":{"types":["deli","restaurant","point_of_interest","food_store","store","food","establishment"],"formattedAddress":"No. 206號, Xiwei St, Sanchong District, New Taipei City, Taiwan 241","websiteUri":"","displayName":{"languageCode":"en","text":"Chih Kao Restaurant"}},"lat":25.0811343,"lng":121.4881539},{"place":{"types":["wedding_venue","event_venue","restaurant","point_of_interest","food","establishment"],"formattedAddress":"No. 283號, Jixian Rd, Luzhou District, New Taipei City, Taiwan 247","websiteUri":"https://hocom.tw/web/Home/index?key=373607998025","displayName":{"languageCode":"zh-TW","text":"富基婚宴會館 蘆洲館"}},"lat":25.0829415,"lng":121.4809845},{"place":{"types":["restaurant","banquet_hall","seafood_restaurant","event_venue","point_of_interest","food","establishment"],"formattedAddress":"No. 395號, Jixian Rd, Luzhou District, New Taipei City, Taiwan 247","websiteUri":"https://www.facebook.com/LoveWindmill/","displayName":{"languageCode":"zh-TW","text":"大風車婚宴餐廳"}},"lat":25.082039,"lng":121.4804196},{"place":{"types":["fast_food_restaurant","restaurant","point_of_interest","food","establishment"],"formattedAddress":"No. 193, Section 4, Sanhe Rd, Sanchong District, New Taipei City, Taiwan 241","websiteUri":"https://www.kfcclub.com.tw/","displayName":{"languageCode":"en","text":"KFC"}},"lat":25.0792566,"lng":121.4822775},{"place":{"types":["steak_house","restaurant","point_of_interest","food","establishment"],"formattedAddress":"247, Taiwan, New Taipei City, Luzhou District, Jixian Rd, 409號2 樓","websiteUri":"https://www.tasty.com.tw/","displayName":{"languageCode":"en","text":"TASTY Luzhou Jixian Branch"}},"lat":25.0810661,"lng":121.4800021},{"place":{"types":["restaurant","point_of_interest","food","establishment"],"formattedAddress":"No. 331號, Zhengyi N Rd, Sanchong District, New Taipei City, Taiwan 241","websiteUri":"https://giafine100.com/","displayName":{"languageCode":"en","text":"Gia-Fine Sanchong Zhengyi Branch"}},"lat":25.0715184,"lng":121.4938262},{"place":{"types":["restaurant","point_of_interest","food","establishment"],"formattedAddress":"No. 80, Section 3, Ziqiang Rd, Sanchong District, New Taipei City, Taiwan 24154","websiteUri":"http://www.facebook.com/pages/%E4%B8%89%E5%92%8C%E5%A4%A7%E7%9B%A4%E7%86%B1%E7%82%92/228373533892083","displayName":{"languageCode":"zh-TW","text":"三和大盤熱炒"}},"lat":25.0744747,"lng":121.4869891},{"place":{"types":["fast_food_restaurant","brunch_restaurant","hamburger_restaurant","american_restaurant","restaurant","point_of_interest","food","establishment"],"formattedAddress":"241, Taiwan, New Taipei City, Sanchong District, Wuhua St, 89-1號1樓","websiteUri":"https://www.mcdonalds.com/tw/zh-tw.html","displayName":{"languageCode":"en","text":"McDonald's Sanchong Wuhua Branch"}},"lat":25.0834559,"lng":121.4919756},{"place":{"types":["japanese_restaurant","restaurant","point_of_interest","food","establishment"],"formattedAddress":"247, Taiwan, New Taipei City, Luzhou District, Zhongshan 1st Rd, 8號5F","websiteUri":"http://www.mo-mo.com.tw/","displayName":{"languageCode":"en","text":"MO-MO-PARADISE St. Ignatius Plaza Branch"}},"lat":25.0805359,"lng":121.4805374},{"place":{"types":["tea_house","restaurant","point_of_interest","food","establishment"],"formattedAddress":"No. 35號, Section 5, Ziqiang Rd, Sanchong District, New Taipei City, Taiwan 241","websiteUri":"https://www.kungfutea.com.tw/","displayName":{"languageCode":"zh-TW","text":"功夫茶 KUNG FU TEA 三重五華店"}},"lat":25.081159,"lng":121.4937225},{"place":{"types":["cafeteria","japanese_restaurant","restaurant","point_of_interest","food","establishment"],"formattedAddress":"B1, No. 401號, Jixian Rd, Luzhou District, New Taipei City, Taiwan 247","websiteUri":"https://www.facebook.com/%E8%82%89%E5%A4%9A%E5%A4%9A%E7%81%AB%E9%8D%8B-%E8%98%86%E6%B4%B2%E9%9B%86%E8%B3%A2%E5%BA%97-102791498885986/?ref=page_internal","displayName":{"languageCode":"zh-TW","text":"肉多多火鍋-蘆洲集賢店"}},"lat":25.0817073,"lng":121.4802991},{"place":{"types":["vegetarian_restaurant","japanese_restaurant","restaurant","point_of_interest","food","establishment"],"formattedAddress":"No. 124號, Liuzhang St, Sanchong District, New Taipei City, Taiwan 241","websiteUri":"https://www.facebook.com/profile.php?id=61560097920894\u0026locale=zh_TW","displayName":{"languageCode":"zh-TW","text":"毅植素食鐵板料理"}},"lat":25.069599,"lng":121.4920326},{"place":{"types":["restaurant","point_of_interest","food","establishment"],"formattedAddress":"No. 398-1, Jixian Rd, Luzhou District, New Taipei City, Taiwan 247","websiteUri":"https://m.facebook.com/lambhotpotallyoucaneat/","displayName":{"languageCode":"zh-TW","text":"御羊樓羊肉爐"}},"lat":25.0822595,"lng":121.4800907},{"place":{"types":["restaurant","point_of_interest","food","establishment"],"formattedAddress":"No. 95-7號, Section 4, Sanhe Rd, Sanchong District, New Taipei City, Taiwan 241","websiteUri":"https://www.facebook.com/profile.php?id=100086929932100\u0026mibextid=LQQJ4d","displayName":{"languageCode":"zh-TW","text":"三蘆生猛活海鮮"}},"lat":25.0762781,"lng":121.4877373},{"place":{"types":["brunch_restaurant","restaurant","point_of_interest","food","establishment"],"formattedAddress":"No. 16號, Section 3, Ziqiang Rd, Sanchong District, New Taipei City, Taiwan 241","websiteUri":"","displayName":{"languageCode":"zh-TW","text":"深夜未歸-三重店"}},"lat":25.0719462,"lng":121.4868737}]