[{"place":{"types":["bowling_alley","sports_complex","sports_activity_location","restaurant","food","point_of_interest","establishment"],"formattedAddress":"No. 83號, Section 2, Yanping N Rd, Datong District, Taipei City, Taiwan 103","websiteUri":"https://www.newcbparty.com/","displayName":{"languageCode":"zh-TW","text":"星聚點KTV台北旗艦館+星聚點保齡球館"}},"lat":25.0561412,"lng":121.5117346},{"place":{"types":["hotel","wedding_venue","chinese_restaurant","event_venue","lodging","restaurant","food","point_of_interest","establishment"],"formattedAddress":"100, Taiwan, Taipei City, Zhongzheng District, 忠孝西路一段43號","websiteUri":"http://www.cosmos-hotel.com.tw/","displayName":{"languageCode":"en","text":"Cosmos Hotel Taipei"}},"lat":25.0463736,"lng":121.5183769},{"place":{"types":["chinese_restaurant","restaurant","food","point_of_interest","establishment"],"formattedAddress":"104, Taiwan, Taipei City, Zhongshan District, Nanjing W Rd, 12號B2","websiteUri":"https://rsv.skm.com.tw/groups/skm-xinyi/companies/-KNf3CgtuFU5cea5_nVg/restaurants/-KNf3CgtuFU5cea5_nVh/preorder","displayName":{"languageCode":"en","text":"Din Tai Fung Mitsukoshi Nanxi Restaurant"}},"lat":25.0523041,"lng":121.5211041},{"place":{"types":["restaurant","food","point_of_interest","establishment"],"formattedAddress":"No. 17號, Lane 220, Chang'an W Rd, Datong District, Taipei City, Taiwan 103","websiteUri":"https://taiwanfjh.waca.ec/page/6143","displayName":{"languageCode":"en","text":"Dadaocheng Braised Pork Rice"}},"lat":25.050962,"lng":121.5146509},{"place":{"types":["restaurant","food","point_of_interest","establishment"],"formattedAddress":"Zhongshan District, Taipei City, Taiwan 104","websiteUri":"","displayName":{"languageCode":"en","text":"Zhongshanjieyun Station"}},"lat":25.0578055,"lng":121.5368154},{"place":{"types":["chinese_restaurant","restaurant","food","point_of_interest","establishment"],"formattedAddress":"No. 18-1號, Lane 105, Section 1, Zhongshan N Rd, Zhongshan District, Taipei City, Taiwan 10491","websiteUri":"http://www.dragon.taipei/","displayName":{"languageCode":"en","text":"Dragon Restaurant"}},"lat":25.0503994,"lng":121.5244649},{"place":{"types":["asian_restaurant","chinese_restaurant","restaurant","food","point_of_interest","establishment"],"formattedAddress":"10491, Taiwan, Taipei City, Zhongshan District, Section 1, Nanjing E Rd, 92號2樓","websiteUri":"https://www.citystar.com.tw/branch","displayName":{"languageCode":"en","text":"Luckstar 24Hr HK Style Restaurant"}},"lat":25.0519063,"lng":121.5260228},{"place":{"types":["restaurant","food","point_of_interest","establishment"],"formattedAddress":"No. 2, Lane 14, Section 1, Kaifeng St, Zhongzheng District, Taipei City, Taiwan 100","websiteUri":"https://www.facebook.com/114637975312065/","displayName":{"languageCode":"en","text":"Liu Shandong Beef Noodles"}},"lat":25.0457149,"lng":121.5137602},{"place":{"types":["restaurant","food","point_of_interest","establishment"],"formattedAddress":"No. 137號, Section 1, Zhongshan N Rd, Zhongshan District, Taipei City, Taiwan 10491","websiteUri":"https://www.chinhuajiao.com/","displayName":{"languageCode":"en","text":"Chin Huajiao Taipei Zhongshan North"}},"lat":25.0517703,"lng":121.5226733},{"place":{"types":["chinese_restaurant","restaurant","food","point_of_interest","establishment"],"formattedAddress":"No. 55號, Changchun Rd, Zhongshan District, Taipei City, Taiwan 10491","websiteUri":"https://www.facebook.com/%E9%9B%9E%E5%AE%B6%E8%8E%8A-279425032095/","displayName":{"languageCode":"en","text":"Chi Chia Chuang (Changchun Road)"}},"lat":25.0550418,"lng":121.5264221},{"place":{"types":["italian_restaurant","restaurant","food","point_of_interest","establishment"],"formattedAddress":"No. 9號, Alley 13, Lane 12, Nanjing W Rd, Zhongshan District, Taipei City, Taiwan 10491","websiteUri":"http://www.rosemary.com.tw/","displayName":{"languageCode":"en","text":"Rosemary"}},"lat":25.051617,"lng":121.5214966},{"place":{"types":["japanese_restaurant","restaurant","food","point_of_interest","establishment"],"formattedAddress":"No. 13, Lane 121, Section 1, Zhongshan N Rd, Zhongshan District, Taipei City, Taiwan 10491","websiteUri":"","displayName":{"languageCode":"zh-TW","text":"肥前屋"}},"lat":25.0511029,"lng":121.5237101},{"place":{"types":["restaurant","food","point_of_interest","establishment"],"formattedAddress":"103, Taiwan, Taipei City, Datong District, Section 1, Chengde Rd, 1號4 樓","websiteUri":"https://inline.app/booking/-LamXb5SAQN7JcJfyRKi:inline-live-2a466/-LamXbrHgLYzPCKRO3QD?language=zh-tw","displayName":{"languageCode":"en","text":"HaiDiLao Q Square Branch"}},"lat":25.0496268,"lng":121.5169766},{"place":{"types":["hotel","bar","american_restaurant","lodging","restaurant","food","point_of_interest","establishment"],"formattedAddress":"No. 57-1號, Section 2, Zhongshan N Rd, Zhongshan District, Taipei City, Taiwan 10412","websiteUri":"https://www.amba-hotels.com/en/zhongshan/","displayName":{"languageCode":"en","text":"amba Taipei Zhongshan 台北中山意舍酒店"}},"lat":25.0557045,"lng":121.5230059},{"place":{"types":["fast_food_restaurant","restaurant","food","point_of_interest","establishment"],"formattedAddress":"100, Taiwan, Taipei City, Zhongzheng District, Xuchang St, 30號1樓","websiteUri":"https://popeyes.com.tw/","displayName":{"languageCode":"en","text":"Popeyes Chicken"}},"lat":25.0454166,"lng":121.5158347},{"place":{"types":["restaurant","food","point_of_interest","establishment"],"formattedAddress":"No. 36之1號, Section 2, Zhongshan N Rd, Zhongshan District, Taipei City, Taiwan 104","websiteUri":"https://www.wulao.com.tw/","displayName":{"languageCode":"en","text":"Wulao Hotpot Taipei Zhongshan Branch"}},"lat":25.0526041,"lng":121.5226127},{"place":{"types":["ramen_restaurant","japanese_restaurant","restaurant","food","point_of_interest","establishment"],"formattedAddress":"No. 105-1號, Linsen N Rd, Zhongshan District, Taipei City, Taiwan 10491","websiteUri":"https://chikumo-ramen.com/zh-tw/","displayName":{"languageCode":"en","text":"Menya Chikumo"}},"lat":25.0502412,"lng":121.5251016},{"place":{"types":["french_restaurant","japanese_restaurant","restaurant","food","point_of_interest","establishment"],"formattedAddress":"No. 44號, Section 2, Zhongshan N Rd, Zhongshan District, Taipei City, Taiwan 10491","websiteUri":"http://www.chamonix.com.tw/","displayName":{"languageCode":"en","text":"CHAMONIX Taipei Zhongshan North Branch"}},"lat":25.0551969,"lng":121.5223734},{"place":{"types":["seafood_restaurant","chinese_restaurant","japanese_restaurant","restaurant","food","point_of_interest","establishment"],"formattedAddress":"No. 52號, Section 1, Minsheng E Rd, Zhongshan District, Taipei City, Taiwan 104011","websiteUri":"http://www.gandou.com.tw/","displayName":{"languageCode":"en","text":"Gandou Zhongshan Branch"}},"lat":25.0579236,"lng":121.5248839},{"place":{"types":["breakfast_restaurant","restaurant","food","point_of_interest","establishment"],"formattedAddress":"No. 29, Chang'an W Rd, Datong District, Taipei City, Taiwan 103","websiteUri":"","displayName":{"languageCode":"en","text":"Sihai Soy Milk"}},"lat":25.050363,"lng":121.5198425}]