[{"place":{"types":["restaurant","meal_delivery","food_delivery","chinese_restaurant","food","point_of_interest","establishment"],"formattedAddress":"100, Taiwan, Taipei City, Zhongzheng District, Section 1, Jinan Rd, 7號1樓","websiteUri":"https://www.moonmoonfood.com/","displayName":{"languageCode":"en","text":"Moon Moon Food Jinan Branch"}},"lat":25.0427329,"lng":121.5219127},{"place":{"types":["deli","food_store","store","restaurant","food","point_of_interest","establishment"],"formattedAddress":"No. 10-1號, Section 1, Roosevelt Rd, Zhongzheng District, Taipei City, Taiwan 100","websiteUri":"https://www.facebook.com/pages/%E9%87%91%E5%B3%B0%E9%AD%AF%E8%82%89%E9%A3%AF/168702296511538","displayName":{"languageCode":"en","text":"Jin Feng Braised Pork Rice"}},"lat":25.032049,"lng":121.5185152},{"place":{"types":["chinese_restaurant","restaurant","food","point_of_interest","establishment"],"formattedAddress":"No. 19, Section 2, Hangzhou S Rd, Da’an District, Taipei City, Taiwan 106","websiteUri":"https://www.thebestxiaolongbao.com/","displayName":{"languageCode":"en","text":"Hang Zhou Xiao Long Bao (Da'an)"}},"lat":25.0340791,"lng":121.5237698},{"place":{"types":["wedding_venue","asian_restaurant","chinese_restaurant","event_venue","restaurant","food","point_of_interest","establishment"],"formattedAddress":"No. 2號, Xuzhou Rd, Zhongzheng District, Taipei City, Taiwan 100","websiteUri":"http://www.tgarden.com.tw/","displayName":{"languageCode":"zh-TW","text":"徐州路2號庭園會館"}},"lat":25.0414335,"lng":121.5195223},{"place":{"types":["breakfast_restaurant","deli","food_store","store","restaurant","food","point_of_interest","establishment"],"formattedAddress":"No. 30-1號, Jinhua St, Zhongzheng District, Taipei City, Taiwan 106","websiteUri":"","displayName":{"languageCode":"en","text":"Ding Yuan Soy Milk"}},"lat":25.0313059,"lng":121.5212093},{"place":{"types":["asian_restaurant","chinese_restaurant","restaurant","food","point_of_interest","establishment"],"formattedAddress":"No. 136號, Section 1, Nanchang Rd, Zhongzheng District, Taipei City, Taiwan 100","websiteUri":"http://www.artgo.com.tw/","displayName":{"languageCode":"en","text":"Gen. Sun Li-Jen Residence (Army Association)"}},"lat":25.0290149,"lng":121.5184463},{"place":{"types":["restaurant","food","point_of_interest","establishment"],"formattedAddress":"100, Taiwan, Taipei City, Zhongzheng District, Hengyang Rd, 3號2樓","websiteUri":"https://giguo.com.tw/","displayName":{"languageCode":"en","text":"Giguo Taipei Hengyang Branch"}},"lat":25.0424957,"lng":121.5138702},{"place":{"types":["chinese_restaurant","restaurant","food","point_of_interest","establishment"],"formattedAddress":"No. 46, Hengyang Rd, Zhongzheng District, Taipei City, Taiwan 100","websiteUri":"http://www.3coins.com.tw/","displayName":{"languageCode":"en","text":"3 Coins"}},"lat":25.0420174,"lng":121.5122878},{"place":{"types":["breakfast_restaurant","deli","food_store","store","restaurant","food","point_of_interest","establishment"],"formattedAddress":"100, Taiwan, Taipei City, Zhongzheng District, Section 2, Hangzhou S Rd, 88號1樓","websiteUri":"","displayName":{"languageCode":"en","text":"Liu Mama Fantuan"}},"lat":25.0294057,"lng":121.5218533},{"place":{"types":["chinese_restaurant","restaurant","food","point_of_interest","establishment"],"formattedAddress":"No. 61-20號, Section 2, Hangzhou S Rd, Da’an District, Taipei City, Taiwan 106","websiteUri":"https://www.facebook.com/taihelou/","displayName":{"languageCode":"en","text":"Tai He Lou"}},"lat":25.0302297,"lng":121.5222613},{"place":{"types":["restaurant","food","point_of_interest","establishment"],"formattedAddress":"No. 19號, Lane 61, Linsen S Rd, Zhongzheng District, Taipei City, Taiwan 100","websiteUri":"https://www.facebook.com/pages/%E5%8C%97%E5%B9%B3%E9%BE%8D%E9%96%80%E5%AE%A2%E6%A3%A7%E9%A4%83%E5%AD%90%E9%A4%A8/193000450730225","displayName":{"languageCode":"en","text":"Longmen Dumpling House"}},"lat":25.0397237,"lng":121.5230043},{"place":{"types":["steak_house","restaurant","food","point_of_interest","establishment"],"formattedAddress":"100, Taiwan, Taipei City, Zhongzheng District, Section 1, Chongqing S Rd, 129號2 樓","websiteUri":"https://www.tasty.com.tw/","displayName":{"languageCode":"en","text":"TASTY Taipei Chongqing S. Branch"}},"lat":25.041988,"lng":121.513329},{"place":{"types":["chinese_restaurant","restaurant","food","point_of_interest","establishment"],"formattedAddress":"No. 43號, Guling St, Zhongzheng District, Taipei City, Taiwan 100","websiteUri":"https://facebook.com/%E9%BB%83%E9%BE%8D%E8%8E%8A-166004346883633/","displayName":{"languageCode":"en","text":"Huang Long Zhuang"}},"lat":25.0299998,"lng":121.5166002},{"place":{"types":["asian_restaurant","chinese_restaurant","restaurant","food","point_of_interest","establishment"],"formattedAddress":"No. 2-1, Section 1, Jinan Rd, Zhongzheng District, Taipei City, Taiwan 100","websiteUri":"http://www.suhung.com.tw/","displayName":{"languageCode":"en","text":"Su Hung"}},"lat":25.0429342,"lng":121.5195817},{"place":{"types":["tea_house","restaurant","food","point_of_interest","establishment"],"formattedAddress":"No. 21之1號, Zhongshan S Rd, Zhongzheng District, Taipei City, Taiwan 100","websiteUri":"http://chunshuitang.com.tw/","displayName":{"languageCode":"en","text":"Chun Shui Tang Zhongzheng Branch"}},"lat":25.0436667,"lng":121.5199991},{"place":{"types":["restaurant","food","point_of_interest","establishment"],"formattedAddress":"No. 27號, Section 2, Roosevelt Rd, Da’an District, Taipei City, Taiwan 106","websiteUri":"https://www.wagyushabu.com.tw/","displayName":{"languageCode":"en","text":"Wagyu Shabu"}},"lat":25.0279444,"lng":121.522035},{"place":{"types":["restaurant","food","point_of_interest","establishment"],"formattedAddress":"No. 1, Lane 25, Section 2, Hangzhou S Rd, Da’an District, Taipei City, Taiwan 106","websiteUri":"","displayName":{"languageCode":"en","text":"Shengyuan Xiao Long Bao"}},"lat":25.033939,"lng":121.5239224},{"place":{"types":["restaurant","food","point_of_interest","establishment"],"formattedAddress":"No. 38號, Chaozhou St, Da’an District, Taipei City, Taiwan 106","websiteUri":"http://www.facebook.com/mr.tree38/","displayName":{"languageCode":"en","text":"Mr.Tree"}},"lat":25.0292266,"lng":121.5227043},{"place":{"types":["restaurant","food","point_of_interest","establishment"],"formattedAddress":"No. 15號, Taoyuan St, Zhongzheng District, Taipei City, Taiwan 100","websiteUri":"","displayName":{"languageCode":"en","text":"Lao Wang Ji Beef Noodles"}},"lat":25.0416805,"lng":121.510559},{"place":{"types":["ramen_restaurant","japanese_restaurant","restaurant","food","point_of_interest","establishment"],"formattedAddress":"No. 116號, Section 1, Chongqing S Rd, Zhongzheng District, Taipei City, Taiwan 100","websiteUri":"https://www.facebook.com/%E5%A1%A9%E7%90%89-101649612102653","displayName":{"languageCode":"en","text":"Yan Liu"}},"lat":25.041916,"lng":121.513028}]