[{"place":{"types":["restaurant","food","point_of_interest","establishment"],"formattedAddress":"No. 17號, Lane 31, Section 2, Jinshan S Rd, Da’an District, Taipei City, Taiwan 106","websiteUri":"https://www.facebook.com/profile.php?id=100063524573126\u0026mibextid=LQQJ4d","displayName":{"languageCode":"en","text":"Yongkang Beef Noodles"}},"lat":25.0329419,"lng":121.5281162},{"place":{"types":["deli","food_store","restaurant","food","point_of_interest","store","establishment"],"formattedAddress":"No. 10-1號, Section 1, Roosevelt Rd, Zhongzheng District, Taipei City, Taiwan 100","websiteUri":"https://www.facebook.com/pages/%E9%87%91%E5%B3%B0%E9%AD%AF%E8%82%89%E9%A3%AF/168702296511538","displayName":{"languageCode":"en","text":"Jin Feng Braised Pork Rice"}},"lat":25.032049,"lng":121.5185152},{"place":{"types":["chinese_restaurant","restaurant","food","point_of_interest","establishment"],"formattedAddress":"No. 19, Section 2, Hangzhou S Rd, Da’an District, Taipei City, Taiwan 106","websiteUri":"https://www.thebestxiaolongbao.com/","displayName":{"languageCode":"en","text":"Hang Zhou Xiao Long Bao (Da'an)"}},"lat":25.0340791,"lng":121.5237698},{"place":{"types":["breakfast_restaurant","deli","food_store","restaurant","food","point_of_interest","store","establishment"],"formattedAddress":"No. 30-1號, Jinhua St, Zhongzheng District, Taipei City, Taiwan 106","websiteUri":"","displayName":{"languageCode":"en","text":"Ding Yuan Soy Milk"}},"lat":25.0313059,"lng":121.5212093},{"place":{"types":["chinese_restaurant","restaurant","food","point_of_interest","establishment"],"formattedAddress":"106, Taiwan, Taipei City, Da’an District, Section 2, Jinshan S Rd, 2號2樓","websiteUri":"https://www.xiangduck.com.tw/index.html","displayName":{"languageCode":"en","text":"Xiang Duck Taipei Jinshan South Branch"}},"lat":25.0337996,"lng":121.5270334},{"place":{"types":["wedding_venue","asian_restaurant","event_venue","chinese_restaurant","restaurant","food","point_of_interest","establishment"],"formattedAddress":"No. 2號, Xuzhou Rd, Zhongzheng District, Taipei City, Taiwan 100","websiteUri":"http://www.tgarden.com.tw/","displayName":{"languageCode":"zh-TW","text":"徐州路2號庭園會館"}},"lat":25.0414335,"lng":121.5195223},{"place":{"types":["restaurant","food","point_of_interest","establishment"],"formattedAddress":"No. 32之3號, Quanzhou St, Zhongzheng District, Taipei City, Taiwan 100","websiteUri":"","displayName":{"languageCode":"zh-TW","text":"黃家香腸"}},"lat":25.0308331,"lng":121.5138652},{"place":{"types":["asian_restaurant","chinese_restaurant","restaurant","food","point_of_interest","establishment"],"formattedAddress":"No. 136號, Section 1, Nanchang Rd, Zhongzheng District, Taipei City, Taiwan 100","websiteUri":"http://www.artgo.com.tw/","displayName":{"languageCode":"en","text":"Gen. Sun Li-Jen Residence (Army Association)"}},"lat":25.0290149,"lng":121.5184463},{"place":{"types":["dessert_shop","dessert_restaurant","confectionery","food_store","restaurant","food","point_of_interest","store","establishment"],"formattedAddress":"100, Taiwan, Taipei City, Zhongzheng District, Sanyuan St, 176號1樓","websiteUri":"http://www.egghost-dessert.com/","displayName":{"languageCode":"en","text":"Egg Host"}},"lat":25.0278398,"lng":121.5114289},{"place":{"types":["breakfast_restaurant","deli","food_store","restaurant","food","point_of_interest","store","establishment"],"formattedAddress":"100, Taiwan, Taipei City, Zhongzheng District, Section 2, Hangzhou S Rd, 88號1樓","websiteUri":"","displayName":{"languageCode":"en","text":"Liu Mama Fantuan"}},"lat":25.0294057,"lng":121.5218533},{"place":{"types":["chinese_restaurant","restaurant","food","point_of_interest","establishment"],"formattedAddress":"No. 61-20號, Section 2, Hangzhou S Rd, Da’an District, Taipei City, Taiwan 106","websiteUri":"https://www.facebook.com/taihelou/","displayName":{"languageCode":"en","text":"Tai He Lou"}},"lat":25.0302297,"lng":121.5222613},{"place":{"types":["dessert_restaurant","bakery","dessert_shop","confectionery","food_store","restaurant","food","point_of_interest","wholesaler","store","establishment"],"formattedAddress":"No. 1號, Lane 141, Section 2, Jinshan S Rd, Da’an District, Taipei City, Taiwan 106","websiteUri":"https://minuit.com.tw/","displayName":{"languageCode":"zh-TW","text":"深夜裡的法國手工甜點"}},"lat":25.0296726,"lng":121.5268376},{"place":{"types":["asian_restaurant","chinese_restaurant","restaurant","food","point_of_interest","establishment"],"formattedAddress":"Lane 75, Section 1, Heping E Rd, Da’an District, Taipei City, Taiwan 106","websiteUri":"https://www.facebook.com/LiJinRestaurant/","displayName":{"languageCode":"en","text":"Taidian Li Jin Restaurant"}},"lat":25.027533,"lng":121.5250959},{"place":{"types":["french_restaurant","japanese_restaurant","restaurant","food","point_of_interest","establishment"],"formattedAddress":"100, Taiwan, Taipei City, Zhongzheng District, Section 2, Nanchang Rd, 112號2樓","websiteUri":"http://www.chamonix.com.tw/","displayName":{"languageCode":"en","text":"CHAMONIX Taipei Nanchang Branch"}},"lat":25.0257837,"lng":121.5220567},{"place":{"types":["restaurant","food","point_of_interest","establishment"],"formattedAddress":"No. 27號, Section 2, Roosevelt Rd, Da’an District, Taipei City, Taiwan 106","websiteUri":"https://www.wagyushabu.com.tw/","displayName":{"languageCode":"en","text":"Wagyu Shabu"}},"lat":25.0279444,"lng":121.522035},{"place":{"types":["chinese_restaurant","restaurant","food","point_of_interest","establishment"],"formattedAddress":"No. 43號, Guling St, Zhongzheng District, Taipei City, Taiwan 100","websiteUri":"https://facebook.com/%E9%BB%83%E9%BE%8D%E8%8E%8A-166004346883633/","displayName":{"languageCode":"en","text":"Huang Long Zhuang"}},"lat":25.0299998,"lng":121.5166002},{"place":{"types":["tea_house","restaurant","food","point_of_interest","establishment"],"formattedAddress":"No. 21之1號, Zhongshan S Rd, Zhongzheng District, Taipei City, Taiwan 100","websiteUri":"http://chunshuitang.com.tw/","displayName":{"languageCode":"en","text":"Chun Shui Tang Zhongzheng Branch"}},"lat":25.0436667,"lng":121.5199991},{"place":{"types":["restaurant","food","point_of_interest","establishment"],"formattedAddress":"No. 80號, Section 1, Heping W Rd, Zhongzheng District, Taipei City, Taiwan 100","websiteUri":"http://www.sukiyakino1.com.tw/","displayName":{"languageCode":"en","text":"Ichiban Sukiyaki Guting Restaurant"}},"lat":25.0263285,"lng":121.5187729},{"place":{"types":["fast_food_restaurant","hamburger_restaurant","brunch_restaurant","american_restaurant","restaurant","food","point_of_interest","establishment"],"formattedAddress":"No. 45, Section 2, Roosevelt Rd, Da’an District, Taipei City, Taiwan 106","websiteUri":"https://www.mcdonalds.com/tw/zh-tw.html","displayName":{"languageCode":"en","text":"McDonald's Roosevelt Road"}},"lat":25.0274742,"lng":121.5224211},{"place":{"types":["restaurant","food","point_of_interest","establishment"],"formattedAddress":"No. 19號, Lane 61, Linsen S Rd, Zhongzheng District, Taipei City, Taiwan 100","websiteUri":"https://www.facebook.com/pages/%E5%8C%97%E5%B9%B3%E9%BE%8D%E9%96%80%E5%AE%A2%E6%A3%A7%E9%A4%83%E5%AD%90%E9%A4%A8/193000450730225","displayName":{"languageCode":"en","text":"Longmen Dumpling House"}},"lat":25.0397237,"lng":121.5230043}]