[{"place":{"types":["buffet_restaurant","restaurant","point_of_interest","food","establishment"],"formattedAddress":"106, Taiwan, Taipei City, Da’an District, 敦化南路1段246號6樓","websiteUri":"https://www.hilai-foods.com/brand-content/1#branch-1","displayName":{"languageCode":"en","text":"Hi-Lai Harbour Dunhua Branch"}},"lat":25.040247,"lng":121.5483374},{"place":{"types":["chinese_restaurant","restaurant","point_of_interest","food","establishment"],"formattedAddress":"106, Taiwan, Taipei City, Da’an District, 敦化南路1段324號B1","websiteUri":"https://www.facebook.com/pages/%E9%A9%A5%E5%9C%92%E5%B7%9D%E8%8F%9C%E9%A4%90%E5%BB%B3/174569459253402","displayName":{"languageCode":"en","text":"Seasons Garden Restaurant"}},"lat":25.0353197,"lng":121.5484663},{"place":{"types":["pizza_restaurant","restaurant","point_of_interest","food","establishment"],"formattedAddress":"No. 300, Guangfu S Rd, Da’an District, Taipei City, Taiwan 106","websiteUri":"https://www.facebook.com/Auntsupizza0316/","displayName":{"languageCode":"en","text":"Aunt Su's Pizza House"}},"lat":25.0391323,"lng":121.5574241},{"place":{"types":["restaurant","point_of_interest","food","establishment"],"formattedAddress":"No. 68號, Leli Rd, Da’an District, Taipei City, Taiwan 106","websiteUri":"https://www.facebook.com/%E5%93%81%E9%B1%BB%E7%94%9F%E7%8C%9B%E6%B4%BB%E6%B5%B7%E9%AE%AE-183511611690858/","displayName":{"languageCode":"zh-TW","text":"品鱻海鮮熱炒店 大安區熱炒"}},"lat":25.0259929,"lng":121.5518035},{"place":{"types":["ramen_restaurant","japanese_restaurant","restaurant","point_of_interest","food","establishment"],"formattedAddress":"No. 228-6, Section 4, Ren'ai Rd, Da’an District, Taipei City, Taiwan 106","websiteUri":"https://www.facebook.com/sobashinncitrus/","displayName":{"languageCode":"en","text":"Soba Shinn Citrus"}},"lat":25.037354,"lng":121.552164},{"place":{"types":["japanese_restaurant","restaurant","point_of_interest","food","establishment"],"formattedAddress":"106, Taiwan, Taipei City, Da’an District, Section 1, Da'an Rd, 135號B1","websiteUri":"https://lihi1.com/HnSd6","displayName":{"languageCode":"en","text":"Orange Shabu 1"}},"lat":25.0387397,"lng":121.5462668},{"place":{"types":["cafe","bar","food_store","restaurant","point_of_interest","food","store","establishment"],"formattedAddress":"110, Taiwan, Taipei City, Xinyi District, 信義路四段379號","websiteUri":"","displayName":{"languageCode":"en","text":"Woolloomooloo"}},"lat":25.0333518,"lng":121.5582768},{"place":{"types":["italian_restaurant","food_store","restaurant","point_of_interest","food","store","establishment"],"formattedAddress":"No. 29-1, Section 1, Anhe Rd, Da’an District, Taipei City, Taiwan 106","websiteUri":"https://www.facebook.com/solopasta/","displayName":{"languageCode":"en","text":"Solo Pasta"}},"lat":25.0391157,"lng":121.5505933},{"place":{"types":["restaurant","cafe","point_of_interest","food","establishment"],"formattedAddress":"110, Taiwan, Taipei City, Xinyi District, 信義路四段415之3號","websiteUri":"http://www.buna.com.tw/","displayName":{"languageCode":"zh-TW","text":"BUNA CAF'E 布納咖啡館 信義館"}},"lat":25.0334267,"lng":121.5594484},{"place":{"types":["breakfast_restaurant","meal_takeaway","restaurant","point_of_interest","food","establishment"],"formattedAddress":"No. 102號, Section 2, Fuxing S Rd, Da’an District, Taipei City, Taiwan 106","websiteUri":"https://www.facebook.com/profile.php?id=100077718220231\u0026mibextid=LQQJ4d","displayName":{"languageCode":"en","text":"Yong He Soya Milk"}},"lat":25.0297583,"lng":121.5433225},{"place":{"types":["asian_restaurant","chinese_restaurant","restaurant","point_of_interest","food","establishment"],"formattedAddress":"No. 2號, Lane 138, Yanji St, Da’an District, Taipei City, Taiwan 106","websiteUri":"https://www.qinshanshi.com/","displayName":{"languageCode":"en","text":"Qin Wei Guan"}},"lat":25.0399182,"lng":121.5546513},{"place":{"types":["restaurant","point_of_interest","food","establishment"],"formattedAddress":"No. 50號, Lane 11, Section 2, Dunhua S Rd, Da’an District, Taipei City, Taiwan 106","websiteUri":"https://store.dudooeat.com/order/store/1fa1027e3c0045edbe3dc8d91ac7a103","displayName":{"languageCode":"zh-TW","text":"LOST and Found"}},"lat":25.0326687,"lng":121.5491856},{"place":{"types":["brunch_restaurant","restaurant","point_of_interest","food","establishment"],"formattedAddress":"106, Taiwan, Taipei City, Da’an District, Section 4, Xinyi Rd, 103號2F","websiteUri":"https://www.instagram.com/brun.taipei/","displayName":{"languageCode":"en","text":"BRUN (Xinyi)"}},"lat":25.0334779,"lng":121.5478044},{"place":{"types":["brunch_restaurant","restaurant","point_of_interest","food","establishment"],"formattedAddress":"No. 7, Section 1, Anhe Rd, Da’an District, Taipei City, Taiwan 106","websiteUri":"https://www.instagram.com/brun.taipei/","displayName":{"languageCode":"en","text":"BRUN (Anhe)"}},"lat":25.039759,"lng":121.549743},{"place":{"types":["chinese_restaurant","restaurant","point_of_interest","food","establishment"],"formattedAddress":"106, Taiwan, Taipei City, Da’an District, 信义路四段25號2樓","websiteUri":"https://www.facebook.com/rongrongyuan0227038822","displayName":{"languageCode":"en","text":"Rong Rong Yuan"}},"lat":25.033726,"lng":121.544238},{"place":{"types":["japanese_restaurant","restaurant","point_of_interest","food","establishment"],"formattedAddress":"No. 21號, Lane 294, Guangfu S Rd, Da’an District, Taipei City, Taiwan 10694","websiteUri":"https://wakuwaku-burger-pasta.tw/","displayName":{"languageCode":"zh-TW","text":"Waku ⁺｜burger pasta cafe"}},"lat":25.0391134,"lng":121.5564447},{"place":{"types":["fast_food_restaurant","brunch_restaurant","hamburger_restaurant","american_restaurant","restaurant","point_of_interest","food","establishment"],"formattedAddress":"No. 286, Guangfu S Rd, Da’an District, Taipei City, Taiwan 106","websiteUri":"https://www.mcdonalds.com/tw/zh-tw.html","displayName":{"languageCode":"en","text":"McDonald's Taipei Guangfu"}},"lat":25.0395492,"lng":121.5574103},{"place":{"types":["restaurant","point_of_interest","food","establishment"],"formattedAddress":"No. 37號, Wuxing St, Xinyi District, Taipei City, Taiwan 110","websiteUri":"https://www.facebook.com/profile.php?id=100021892580496","displayName":{"languageCode":"en","text":"Cha Kee Noodle House"}},"lat":25.0313129,"lng":121.5600561},{"place":{"types":["japanese_restaurant","sushi_restaurant","seafood_restaurant","restaurant","point_of_interest","food","establishment"],"formattedAddress":"No. 18, Lane 233, Yanji St, Da’an District, Taipei City, Taiwan 106","websiteUri":"http://www.kingyotaipei.com/","displayName":{"languageCode":"zh-TW","text":"金魚日本料理"}},"lat":25.0368736,"lng":121.5563127},{"place":{"types":["american_restaurant","restaurant","point_of_interest","food","establishment"],"formattedAddress":"No. 14號, Lane 63, Section 2, Dunhua S Rd, Da’an District, Taipei City, Taiwan 106","websiteUri":"","displayName":{"languageCode":"en","text":"Second Floor Cafe Dunnan Restaurant"}},"lat":25.0306988,"lng":121.5499443}]