[{"place":{"types":["wedding_venue","convention_center","auditorium","event_venue","restaurant","point_of_interest","food","establishment"],"formattedAddress":"No. 8, ZhiFu Rd, Zhongshan District, Taipei City, Taiwan 10466","websiteUri":"http://www.denwell.com/","displayName":{"languageCode":"en","text":"Dazhi Denwell"}},"lat":25.0837339,"lng":121.5550552},{"place":{"types":["buffet_restaurant","restaurant","point_of_interest","food","establishment"],"formattedAddress":"10491, Taiwan, Taipei City, Zhongshan District, ZhiFu Rd, 8號1樓","websiteUri":"http://www.ffood.tw/","displayName":{"languageCode":"zh-TW","text":"豐 FOOD 海陸百匯"}},"lat":25.0837339,"lng":121.5550552},{"place":{"types":["restaurant","point_of_interest","food","establishment"],"formattedAddress":"No. 93, Section 1, Neihu Rd, Neihu District, Taipei City, Taiwan 114","websiteUri":"","displayName":{"languageCode":"en","text":"Lai Lai Dow Jang"}},"lat":25.0845233,"lng":121.5614559},{"place":{"types":["buffet_restaurant","restaurant","point_of_interest","food","establishment"],"formattedAddress":"104, Taiwan, Taipei City, Zhongshan District, Lequn 2nd Rd, 55號1樓","websiteUri":"http://www.grandmayfull.com/dining/palatte","displayName":{"languageCode":"en","text":"Palette"}},"lat":25.0805223,"lng":121.5535981},{"place":{"types":["chinese_restaurant","restaurant","point_of_interest","food","establishment"],"formattedAddress":"No. 231號, Section 1, Neihu Rd, Neihu District, Taipei City, Taiwan 114","websiteUri":"https://m.facebook.com/100063903486538/","displayName":{"languageCode":"zh-TW","text":"黑美林"}},"lat":25.0826836,"lng":121.565205},{"place":{"types":["food_court","restaurant","point_of_interest","food","establishment"],"formattedAddress":"No. 303號, Lequn 3rd Rd, Zhongshan District, Taipei City, Taiwan 10491","websiteUri":"https://www.chunplace.com.tw/","displayName":{"languageCode":"en","text":"CHUN PLACE Dazhi"}},"lat":25.0827634,"lng":121.559968},{"place":{"types":["thai_restaurant","seafood_restaurant","cafeteria","restaurant","point_of_interest","food","establishment"],"formattedAddress":"104053, Taiwan, Taipei City, Zhongshan District, ZhiFu Rd, 200號, Hotel Indigo Taipei North, 4F4樓","websiteUri":"https://www.regenttaiwan.com/dining/outside-dining/spice-market","displayName":{"languageCode":"en","text":"Spice Market Hotel Indigo Taipei North Store"}},"lat":25.0829233,"lng":121.5602782},{"place":{"types":["barbecue_restaurant","japanese_restaurant","restaurant","point_of_interest","food","establishment"],"formattedAddress":"104, Taiwan, Taipei City, Zhongshan District, Jingye 2nd Rd, 199號5樓","websiteUri":"https://www.facebook.com/profile.php?id=100064529150759","displayName":{"languageCode":"en","text":"大腕燒肉Da-wan"}},"lat":25.0843557,"lng":121.5542279},{"place":{"types":["restaurant","night_club","bar","point_of_interest","food","establishment"],"formattedAddress":"104, Taiwan, Taipei City, Zhongshan District, Jingye 3rd Rd, 20號5F","websiteUri":"http://www.lebledor.com/location/miramar?utm_source=GMB\u0026utm_medium=website-btn\u0026utm_campaign=miramar","displayName":{"languageCode":"en","text":"Le blé dór"}},"lat":25.0833072,"lng":121.5571648},{"place":{"types":["asian_restaurant","chinese_restaurant","restaurant","point_of_interest","food","establishment"],"formattedAddress":"No. 199號, Lequn 2nd Rd, Zhongshan District, Taipei City, Taiwan 10491","websiteUri":"https://www.shinyeh.com.tw/content/zh/Brand/Index.aspx?BrandId=11","displayName":{"languageCode":"en","text":"Shin Yeh Taiwanese Signature TM Midtown Branch"}},"lat":25.0804289,"lng":121.5592994},{"place":{"types":["french_restaurant","restaurant","point_of_interest","food","establishment"],"formattedAddress":"No. 301號, Lequn 3rd Rd, Zhongshan District, Taipei City, Taiwan 10491","websiteUri":"http://www.raw.com.tw/","displayName":{"languageCode":"en","text":"RAW"}},"lat":25.0828079,"lng":121.5594304},{"place":{"types":["steak_house","restaurant","point_of_interest","food","establishment"],"formattedAddress":"No. 58, Lequn 3rd Rd, Zhongshan District, Taipei City, Taiwan 104","websiteUri":"https://www.dannycompany.com.tw/","displayName":{"languageCode":"en","text":"Danny's Steakhouse"}},"lat":25.0825268,"lng":121.5529266},{"place":{"types":["japanese_restaurant","restaurant","point_of_interest","food","establishment"],"formattedAddress":"104050, Taiwan, Taipei City, Zhongshan District, Jingye 2nd Rd, 199號2樓","websiteUri":"https://www.chamonix.com.tw/","displayName":{"languageCode":"en","text":"CHAMONIX Taipei Dazhi Jingye Branch"}},"lat":25.0843557,"lng":121.5542279},{"place":{"types":["restaurant","brunch_restaurant","point_of_interest","food_store","store","food","establishment"],"formattedAddress":"104, Taiwan, Taipei City, Zhongshan District, ZhiFu Rd, 8號入口於戶外1樓","websiteUri":"https://www.instagram.com/chalet__v/","displayName":{"languageCode":"zh-TW","text":"CHALET V"}},"lat":25.0837339,"lng":121.5550552},{"place":{"types":["restaurant","point_of_interest","food","establishment"],"formattedAddress":"10463, Taiwan, Taipei City, Zhongshan District, Alley 20, Lane 595, Beian Rd, 4號1樓","websiteUri":"http://www.restaurant-page.com/","displayName":{"languageCode":"zh-TW","text":"Restaurant Page 頁小館"}},"lat":25.081809,"lng":121.5477847},{"place":{"types":["hotel","inn","buffet_restaurant","lodging","restaurant","point_of_interest","food","establishment"],"formattedAddress":"No. 566號, Section 2, Tiding Blvd, Zhongshan District, Taipei City, Taiwan 10491","websiteUri":"http://www.saurahotel.com.tw/","displayName":{"languageCode":"en","text":"Saura Hotel \u0026 Banquet"}},"lat":25.0839901,"lng":121.5603664},{"place":{"types":["japanese_restaurant","restaurant","point_of_interest","food","establishment"],"formattedAddress":"No. 604, Mingshui Rd, Zhongshan District, Taipei City, Taiwan 104","websiteUri":"http://www.mitsuitaipei.com.tw/","displayName":{"languageCode":"en","text":"Mitsui Cuisine Mingshui"}},"lat":25.0815216,"lng":121.5517768},{"place":{"types":["chinese_restaurant","restaurant","point_of_interest","food","establishment"],"formattedAddress":"104, Taiwan, Taipei City, Zhongshan District, Lequn 3rd Rd, 303號3樓","websiteUri":"https://www.chiouhwa.com/","displayName":{"languageCode":"en","text":"Chiou Hwa Chun Place Dazhi Branch"}},"lat":25.0827959,"lng":121.5603287},{"place":{"types":["fast_food_restaurant","brunch_restaurant","hamburger_restaurant","american_restaurant","restaurant","point_of_interest","food","establishment"],"formattedAddress":"No. 626號, Beian Rd, Zhongshan District, Taipei City, Taiwan 10491","websiteUri":"https://www.mcdonalds.com/tw/zh-tw.html","displayName":{"languageCode":"en","text":"McDonald's Taipei Bei’an Branch"}},"lat":25.0826447,"lng":121.5491572},{"place":{"types":["brunch_restaurant","pub","convention_center","wedding_venue","bar","event_venue","restaurant","point_of_interest","food","establishment"],"formattedAddress":"No. 466號, Section 2, Tiding Blvd, Zhongshan District, Taipei City, Taiwan 10491","websiteUri":"https://inline.app/booking/-NgqDAocoR1aDYEHFgsG:inline-live-3/-NgqDB5OmYO3iBrj8h1a","displayName":{"languageCode":"zh-TW","text":"Poetry 如詩｜大直早午餐、餐酒館"}},"lat":25.0816031,"lng":121.5617271}]