[{"place":{"types":["ramen_restaurant","japanese_restaurant","restaurant","food","point_of_interest","establishment"],"formattedAddress":"No. 97號, Songren Rd, Xinyi District, Taipei City, Taiwan 110","websiteUri":"https://zh-cht.ichiran.com/shop/oversea/taiwan/taipei-honten/","displayName":{"languageCode":"en","text":"Ichiran Taipei Main Branch"}},"lat":25.0361873,"lng":121.5691897},{"place":{"types":["ramen_restaurant","japanese_restaurant","restaurant","food","point_of_interest","establishment"],"formattedAddress":"110, Taiwan, Taipei City, Xinyi District, Songshou Rd, 11號B1F","websiteUri":"https://ichiran.com/shop/oversea/taiwan/taipei-honten-a11/","displayName":{"languageCode":"en","text":"Ichiran Taipei Second Branch"}},"lat":25.0363769,"lng":121.5673088},{"place":{"types":["chinese_restaurant","restaurant","food","point_of_interest","establishment"],"formattedAddress":"110, Taiwan, Taipei City, Xinyi District, City Hall Rd, 45號B1","websiteUri":"https://www.dintaifung.com.tw/","displayName":{"languageCode":"en","text":"Din Tai Fung 101"}},"lat":25.0338211,"lng":121.5644443},{"place":{"types":["restaurant","food","point_of_interest","establishment"],"formattedAddress":"No. 2號, Songshou Rd, Xinyi District, Taipei City, Taiwan 110","websiteUri":"","displayName":{"languageCode":"zh-TW","text":"君悅飯店"}},"lat":25.0351708,"lng":121.5628669},{"place":{"types":["buffet_restaurant","cafeteria","restaurant","food","point_of_interest","establishment"],"formattedAddress":"110, Taiwan, Taipei City, Xinyi District, Songren Rd, 58號遠東百貨 信義A13 9F","websiteUri":"http://www.xujisunrise.com.tw/zh-TW/home","displayName":{"languageCode":"en","text":"Sunrise Xinyi Branch"}},"lat":25.0367511,"lng":121.5679552},{"place":{"types":["restaurant","food","point_of_interest","establishment"],"formattedAddress":"110, Taiwan, Taipei City, Xinyi District, Songzhi Rd, 17號B2 (地下二樓","websiteUri":"https://inline.app/booking/-LamXb5SAQN7JcJfyRKi:inline-live-2a466/-LaoSi9XquFvKWJ0eron?language=zh-tw","displayName":{"languageCode":"en","text":"HaiDiLao Taipei Breeze NanShan Branch"}},"lat":25.0343073,"lng":121.5659555},{"place":{"types":["pizza_restaurant","restaurant","food","point_of_interest","establishment"],"formattedAddress":"No. 300, Guangfu S Rd, Da’an District, Taipei City, Taiwan 106","websiteUri":"https://www.facebook.com/Auntsupizza0316/","displayName":{"languageCode":"en","text":"Aunt Su's Pizza House"}},"lat":25.0391323,"lng":121.5574241},{"place":{"types":["buffet_restaurant","restaurant","food","point_of_interest","establishment"],"formattedAddress":"110, Taiwan, Taipei City, Xinyi District, Songshou Rd, 12號ATT 4 FUN百貨6樓","websiteUri":"https://www.eatogether.com.tw/zh-TW/home","displayName":{"languageCode":"en","text":"Eatogether Xinyi Restaurant"}},"lat":25.0353558,"lng":121.5659995},{"place":{"types":["chinese_restaurant","restaurant","food","point_of_interest","establishment"],"formattedAddress":"110, Taiwan, Taipei City, Xinyi District, Songshou Rd, 12號1 樓","websiteUri":"https://www.diaominasia.com/","displayName":{"languageCode":"en","text":"Diao Min Asia Sauerkraut Fish Xinyi Branch"}},"lat":25.03531,"lng":121.5660665},{"place":{"types":["chinese_restaurant","restaurant","food","point_of_interest","establishment"],"formattedAddress":"110, Taiwan, Taipei City, Xinyi District, Songren Rd, 101號B1樓","websiteUri":"https://www.diaominasia.com/","displayName":{"languageCode":"en","text":"Diao Min Asia Sauerkraut Fish Xinyi Songren Branch"}},"lat":25.036244,"lng":121.5689107},{"place":{"types":["restaurant","food","point_of_interest","establishment"],"formattedAddress":"110, Taiwan, Taipei City, Xinyi District, Songshou Rd, 12號6樓","websiteUri":"https://kiki1991.oddle.me/zh_TW/","displayName":{"languageCode":"zh-TW","text":"KiKi餐廳（ATT 4 FUN信義店）"}},"lat":25.0354713,"lng":121.5660703},{"place":{"types":["cafe","bar","food_store","restaurant","food","store","point_of_interest","establishment"],"formattedAddress":"110, Taiwan, Taipei City, Xinyi District, 信義路四段379號","websiteUri":"","displayName":{"languageCode":"en","text":"Woolloomooloo"}},"lat":25.0333518,"lng":121.5582768},{"place":{"types":["restaurant","cafe","food","point_of_interest","establishment"],"formattedAddress":"110, Taiwan, Taipei City, Xinyi District, 信義路四段415之3號","websiteUri":"http://www.buna.com.tw/","displayName":{"languageCode":"zh-TW","text":"BUNA CAF'E 布納咖啡館 信義館"}},"lat":25.0334267,"lng":121.5594484},{"place":{"types":["chinese_restaurant","restaurant","food","point_of_interest","establishment"],"formattedAddress":"110, Taiwan, Taipei City, Xinyi District, Songgao Rd, 19號Ｂ２","websiteUri":"https://rsv.skm.com.tw/groups/skm-xinyi/companies/-KNf3CgtuFU5cea5_nVg/restaurants/-KNf3CgtuFU5cea5_nVh/preorder","displayName":{"languageCode":"en","text":"Din Tai Fung SKM Xinyi A4 Branch"}},"lat":25.0396922,"lng":121.5664837},{"place":{"types":["american_restaurant","seafood_restaurant","hamburger_restaurant","bar","restaurant","food","point_of_interest","establishment"],"formattedAddress":"110, Taiwan, Taipei City, Xinyi District, Songren Rd, 58號14樓","websiteUri":"https://www.hooters.com.tw/","displayName":{"languageCode":"en","text":"HOOTERS Xinyi Branch"}},"lat":25.0368001,"lng":121.5681278},{"place":{"types":["restaurant","food","point_of_interest","establishment"],"formattedAddress":"110, Taiwan, Taipei City, Xinyi District, Songshou Rd, 28號1樓","websiteUri":"https://inline.app/booking/-LDKPhTT6bNhwjRVHpC2?language=zh-tw\u0026fbclid=IwAR39ynHxUYIhofgXcYEJIKo5fn5Mza9gf8eBEV1pZ_IbAIMdn3bb3yAbigc","displayName":{"languageCode":"en","text":"Xindian Hotpot"}},"lat":25.0355423,"lng":121.5680137},{"place":{"types":["chinese_restaurant","restaurant","food","point_of_interest","establishment"],"formattedAddress":"1F, No. 58號, Songren Rd, Xinyi District, Taipei City, Taiwan 110","websiteUri":"https://www.dintaifung.com.tw/","displayName":{"languageCode":"en","text":"Din Tai Fung A13 Branch"}},"lat":25.0367556,"lng":121.5679505},{"place":{"types":["bar_and_grill","japanese_restaurant","bar","restaurant","food","point_of_interest","establishment"],"formattedAddress":"110, Taiwan, Taipei City, Xinyi District, Songren Rd, 101號B1","websiteUri":"https://www.lao-jing.com/","displayName":{"languageCode":"zh-TW","text":"老井極上燒肉 台北信義店"}},"lat":25.036244,"lng":121.5689107},{"place":{"types":["japanese_restaurant","food_store","restaurant","food","store","point_of_interest","establishment"],"formattedAddress":"No. 17號, Lane 42, Yixian Rd, Xinyi District, Taipei City, Taiwan 110","websiteUri":"https://www.facebook.com/HANNAPastaCafe","displayName":{"languageCode":"zh-TW","text":"HANNA Pasta Café パスタ カフェ"}},"lat":25.0402213,"lng":121.562373},{"place":{"types":["fast_food_restaurant","hamburger_restaurant","brunch_restaurant","american_restaurant","restaurant","food","point_of_interest","establishment"],"formattedAddress":"No. 286, Guangfu S Rd, Da’an District, Taipei City, Taiwan 106","websiteUri":"https://www.mcdonalds.com/tw/zh-tw.html","displayName":{"languageCode":"en","text":"McDonald's Taipei Guangfu"}},"lat":25.0395492,"lng":121.5574103}]