[{"place":{"types":["hotel","convention_center","university","event_venue","lodging","restaurant","food","point_of_interest","establishment"],"formattedAddress":"No. 30號, Section 3, Xinsheng S Rd, Da’an District, Taipei City, Taiwan 106","websiteUri":"https://www.howard-hotels.com.tw/zh_TW/HotelBusiness/96","displayName":{"languageCode":"en","text":"Howard Civil Service International House"}},"lat":25.0236484,"lng":121.5343264},{"place":{"types":["park","tourist_attraction","real_estate_agency","parking","performing_arts_theater","event_venue","food_store","restaurant","food","point_of_interest","store","establishment"],"formattedAddress":"No. 2號, Section 3, Tingzhou Rd, Zhongzheng District, Taipei City, Taiwan 100","websiteUri":"https://ssl.thcp.org.tw/","displayName":{"languageCode":"en","text":"Taipei City Hakka Cultural Park"}},"lat":25.0201302,"lng":121.5253411},{"place":{"types":["restaurant","food","point_of_interest","establishment"],"formattedAddress":"No. 1號, Alley 9, Lane 316, Section 3, Roosevelt Rd, Zhongzheng District, Taipei City, Taiwan 100","websiteUri":"https://inline.app/order/-LDKPhTT6bNhwjRVHpC2/-MWbDrcVGUuDMkYvCrz7?language=zh-tw","displayName":{"languageCode":"en","text":"Xin Dian Hotpot"}},"lat":25.0155617,"lng":121.5318555},{"place":{"types":["restaurant","food","point_of_interest","establishment"],"formattedAddress":"No. 5號, Alley 9, Lane 316, Section 3, Roosevelt Rd, Zhongzheng District, Taipei City, Taiwan 100","websiteUri":"","displayName":{"languageCode":"en","text":"SECOND FLOOR CAFE Gongguan"}},"lat":25.0157721,"lng":121.5316146},{"place":{"types":["american_restaurant","restaurant","food","point_of_interest","establishment"],"formattedAddress":"No. 24號, Shida Rd, Da’an District, Taipei City, Taiwan 106","websiteUri":"","displayName":{"languageCode":"en","text":"SECOND FLOOR CAFE NTNU"}},"lat":25.025382,"lng":121.5282143},{"place":{"types":["restaurant","food","point_of_interest","establishment"],"formattedAddress":"No. 2號, Alley 21, Lane 283, Section 3, Luosifu Rd, Da’an District, Taipei City, Taiwan 106","websiteUri":"","displayName":{"languageCode":"en","text":"Wish You Luck HK Cafe"}},"lat":25.0196468,"lng":121.5316013},{"place":{"types":["restaurant","banquet_hall","wedding_venue","event_venue","chinese_restaurant","food","point_of_interest","establishment"],"formattedAddress":"No. 16號, Siyuan St, Zhongzheng District, Taipei City, Taiwan 100","websiteUri":"https://www.lamaree.com.tw/gongguan/","displayName":{"languageCode":"en","text":"La Marée"}},"lat":25.0137039,"lng":121.5283471},{"place":{"types":["asian_restaurant","chinese_restaurant","restaurant","food","point_of_interest","establishment"],"formattedAddress":"Lane 75, Section 1, Heping E Rd, Da’an District, Taipei City, Taiwan 106","websiteUri":"https://www.facebook.com/LiJinRestaurant/","displayName":{"languageCode":"en","text":"Taidian Li Jin Restaurant"}},"lat":25.027533,"lng":121.5250959},{"place":{"types":["meal_takeaway","restaurant","food","point_of_interest","establishment"],"formattedAddress":"No. 3號, Alley 8, Ln. 316, Section 3, Roosevelt Rd, Zhongzheng District, Taipei City, Taiwan 100","websiteUri":"https://instagram.com/lan_jia_gua_bao?utm_medium=copy_link","displayName":{"languageCode":"en","text":"Lan Jia Gua Bao Traditional Taiwanese Snack"}},"lat":25.0156409,"lng":121.5326387},{"place":{"types":["french_restaurant","japanese_restaurant","restaurant","food","point_of_interest","establishment"],"formattedAddress":"100, Taiwan, Taipei City, Zhongzheng District, Section 2, Nanchang Rd, 112號2樓","websiteUri":"http://www.chamonix.com.tw/","displayName":{"languageCode":"en","text":"CHAMONIX Taipei Nanchang Branch"}},"lat":25.0257837,"lng":121.5220567},{"place":{"types":["restaurant","food","point_of_interest","establishment"],"formattedAddress":"No. 10, Lane 284, Section 3, Roosevelt Rd, Zhongzheng District, Taipei City, Taiwan 100","websiteUri":"https://www.facebook.com/%E6%B1%A0%E5%85%88%E7%94%9F-Kopitiam-274016432761128/?hc_location=ufi","displayName":{"languageCode":"en","text":"Mr. Chee Kopitiam"}},"lat":25.015967,"lng":121.531804},{"place":{"types":["asian_restaurant","chinese_restaurant","restaurant","food","point_of_interest","establishment"],"formattedAddress":"No. 48, Yongkang St, Da’an District, Taipei City, Taiwan 106","websiteUri":"","displayName":{"languageCode":"en","text":"Hong Kong Xin Hua Restaurant"}},"lat":25.0289507,"lng":121.5294734},{"place":{"types":["chinese_restaurant","food_store","restaurant","food","point_of_interest","store","establishment"],"formattedAddress":"No. 58之3號, Section 3, Xinsheng S Rd, Da’an District, Taipei City, Taiwan 106","websiteUri":"https://www.facebook.com/share/15owTuGTJi/?mibextid=wwXIfr","displayName":{"languageCode":"en","text":"Fengcheng Cantonese Restaurant"}},"lat":25.023717,"lng":121.5348771},{"place":{"types":["deli","meal_takeaway","food_store","restaurant","food","point_of_interest","store","establishment"],"formattedAddress":"No. 14, Lane 39, Shida Rd, Da’an District, Taipei City, Taiwan 106","websiteUri":"https://line.me/R/ti/p/%40441smpof","displayName":{"languageCode":"en","text":"SHI YUN Taiwanese Fried Chicken Main Store"}},"lat":25.0245357,"lng":121.5290215},{"place":{"types":["sushi_restaurant","japanese_restaurant","restaurant","food","point_of_interest","establishment"],"formattedAddress":"100, Taiwan, Taipei City, Zhongzheng District, Section 4, Roosevelt Rd, 68號2樓","websiteUri":"http://www.sushiro.com.tw/","displayName":{"languageCode":"en","text":"Sushiro Taipei Gongguan"}},"lat":25.0145683,"lng":121.5342721},{"place":{"types":["chinese_restaurant","restaurant","food","point_of_interest","establishment"],"formattedAddress":"No. 188, Section 2, Nanchang Rd, Zhongzheng District, Taipei City, Taiwan 100","websiteUri":"http://www.wutsaujiu.com.tw/php/menu_list.php","displayName":{"languageCode":"zh-TW","text":"五草車中華食館 南昌店"}},"lat":25.0242771,"lng":121.5238735},{"place":{"types":["korean_restaurant","restaurant","food","point_of_interest","establishment"],"formattedAddress":"No. 29號, Lane 13, Pucheng St, Da’an District, Taipei City, Taiwan 106","websiteUri":"https://inline.app/booking/-NQ51p0FXtvrqxj-vaKO:inline-live-3","displayName":{"languageCode":"zh-TW","text":"東大門韓國特色料理"}},"lat":25.0245278,"lng":121.5280571},{"place":{"types":["restaurant","food","point_of_interest","establishment"],"formattedAddress":"No. 28, Section 3, Xinsheng S Rd, Da’an District, Taipei City, Taiwan 106","websiteUri":"http://www.mjy.com.tw/","displayName":{"languageCode":"zh-TW","text":"莫宰羊-大安台大店"}},"lat":25.0238748,"lng":121.5344152},{"place":{"types":["dessert_restaurant","ice_cream_shop","dessert_shop","confectionery","food_store","restaurant","food","point_of_interest","store","establishment"],"formattedAddress":"No. 21號, Lane 244, Section 3, Roosevelt Rd, Zhongzheng District, Taipei City, Taiwan 100","websiteUri":"https://zh-tw.facebook.com/pages/category/Gelato-Shop/129964274267114/","displayName":{"languageCode":"en","text":"Mr. Chef Snow \u0026 Tofu Gongguan"}},"lat":25.0166544,"lng":121.5304567},{"place":{"types":["ramen_restaurant","japanese_restaurant","restaurant","food","point_of_interest","establishment"],"formattedAddress":"No. 1之1號, Lane 52, Section 4, Roosevelt Rd, Zhongzheng District, Taipei City, Taiwan 10090","websiteUri":"https://www.facebook.com/%E9%9A%B1%E5%AE%B6%E6%8B%89%E9%BA%B5-%E5%85%AC%E9%A4%A8%E5%BA%97-104979005445159/","displayName":{"languageCode":"en","text":"Ajito Ramen Gongguan"}},"lat":25.0147431,"lng":121.5334062}]