[{"place":{"types":["fast_food_restaurant","hamburger_restaurant","brunch_restaurant","american_restaurant","restaurant","food","point_of_interest","establishment"],"formattedAddress":"112, Taiwan, Taipei City, Beitou District, Section 7, Chengde Rd, 262號1樓","websiteUri":"https://www.mcdonalds.com/tw/zh-tw.html","displayName":{"languageCode":"en","text":"McDonald's"}},"lat":25.1160159,"lng":121.5058548},{"place":{"types":["breakfast_restaurant","deli","restaurant","food_store","food","store","point_of_interest","establishment"],"formattedAddress":"No. 7號, Lane 48, Shijian St, Beitou District, Taipei City, Taiwan 112","websiteUri":"https://www.facebook.com/%E7%9F%B3%E7%89%8C%E5%AF%A6%E8%B8%90%E8%A1%9748%E5%B7%B7%E5%82%B3%E7%B5%B1%E6%89%8B%E5%B7%A5%E8%9B%8B%E9%A4%85-167621789978815/","displayName":{"languageCode":"zh-TW","text":"石牌無名手工蛋餅"}},"lat":25.1147398,"lng":121.5093134},{"place":{"types":["asian_restaurant","chinese_restaurant","restaurant","food","point_of_interest","establishment"],"formattedAddress":"112, Taiwan, Taipei City, Beitou District, Section 2, Zhongyang S Rd, 14-1號捷運奇岩站","websiteUri":"","displayName":{"languageCode":"zh-TW","text":"傳承茶蝦飯 我家客家小館"}},"lat":25.1270323,"lng":121.5000746},{"place":{"types":["seafood_restaurant","restaurant","food","point_of_interest","establishment"],"formattedAddress":"No. 114號, Section 2, Donghua St, Beitou District, Taipei City, Taiwan 112","websiteUri":"https://www.facebook.com/cyclamen.restaurant/","displayName":{"languageCode":"en","text":"Cyclamen Garden Seafood Restaurant"}},"lat":25.1186449,"lng":121.5131131},{"place":{"types":["deli","korean_restaurant","restaurant","food_store","food","store","point_of_interest","establishment"],"formattedAddress":"No. 41號, Section 1, Shipai Rd, Beitou District, Taipei City, Taiwan 112","websiteUri":"https://www.facebook.com/pages/%E6%9D%BF%E6%A9%8B%E5%8D%97%E9%9B%85%E5%A4%9C%E5%B8%82%E5%A5%BD%E5%91%B3%E9%81%93%E8%87%AD%E8%B1%86%E8%85%90/204811299534833","displayName":{"languageCode":"zh-TW","text":"好味道臭豆腐（車庫臭豆腐）"}},"lat":25.1132571,"lng":121.5103967},{"place":{"types":["restaurant","food","point_of_interest","establishment"],"formattedAddress":"No. 209號, Section 2, Xi'an St, Beitou District, Taipei City, Taiwan 112","websiteUri":"https://www.facebook.com/share/1A8qYP1tJi/","displayName":{"languageCode":"zh-TW","text":"長疆碳燒羊肉爐-北投店"}},"lat":25.1198986,"lng":121.5097567},{"place":{"types":["restaurant","japanese_restaurant","food","point_of_interest","establishment"],"formattedAddress":"No. 32號, Lane 123, Jili St, Beitou District, Taipei City, Taiwan 112","websiteUri":"","displayName":{"languageCode":"zh-TW","text":"咔豬 KATSU 超厚切豬排｜挑戰全台最厚（厚切日式炸豬排、原肉牛肋咖哩飯）"}},"lat":25.1193183,"lng":121.5061314},{"place":{"types":["hamburger_restaurant","fast_food_restaurant","vegetarian_restaurant","meal_delivery","food_delivery","american_restaurant","restaurant","food","point_of_interest","establishment"],"formattedAddress":"No. 36-1號, Section 2, Zhongyang S Rd, Beitou District, Taipei City, Taiwan 112","websiteUri":"https://lin.ee/uwMWicO","displayName":{"languageCode":"zh-TW","text":"Burger Su 美式蔬食漢堡-北投店"}},"lat":25.1248501,"lng":121.5001533},{"place":{"types":["restaurant","food","point_of_interest","establishment"],"formattedAddress":"No. 215號, Section 2, Xi'an St, Beitou District, Taipei City, Taiwan 112","websiteUri":"https://www.facebook.com/share/1AGJj4Yxpb/","displayName":{"languageCode":"en","text":"Baweijiangmuya-Shipaidian-Qilian Station"}},"lat":25.1199206,"lng":121.5095355},{"place":{"types":["restaurant","food","point_of_interest","establishment"],"formattedAddress":"No. 41號, Shijian St, Beitou District, Taipei City, Taiwan 112","websiteUri":"https://www.facebook.com/guodong26259246/?locale=zh_TW","displayName":{"languageCode":"zh-TW","text":"鍋董日式涮涮鍋石牌店"}},"lat":25.1153003,"lng":121.5091659},{"place":{"types":["coffee_shop","cafe","restaurant","food_store","food","store","point_of_interest","establishment"],"formattedAddress":"112, Taiwan, Taipei City, Beitou District, 西安街二段259巷6號","websiteUri":"https://www.facebook.com/profile.php?id=61551297422396\u0026mibextid=LQQJ4d","displayName":{"languageCode":"zh-TW","text":"休息咖啡館chill cafe"}},"lat":25.119817,"lng":121.5071227},{"place":{"types":["restaurant","food","point_of_interest","establishment"],"formattedAddress":"No. 2號, Alley 3, Lane 71, Section 1, Shipai Rd, Beitou District, Taipei City, Taiwan 112","websiteUri":"https://www.facebook.com/pages/category/Chinese-Restaurant/%E5%B1%B1%E6%9D%B1%E5%A7%A5%E5%A7%A5%E9%BA%B5%E9%A3%9F%E9%A4%A8-%E5%8F%B0%E5%8C%97%E7%9F%B3%E7%89%8C%E5%BA%97-141144132613583/","displayName":{"languageCode":"zh-TW","text":"山東姥姥麵食"}},"lat":25.1139032,"lng":121.510956},{"place":{"types":["restaurant","food","point_of_interest","establishment"],"formattedAddress":"112, Taiwan, Taipei City, Beitou District, Section 1, Chongren Rd, 80號1樓","websiteUri":"","displayName":{"languageCode":"zh-TW","text":"食光機奇岩店"}},"lat":25.1260692,"lng":121.5015068},{"place":{"types":["french_restaurant","restaurant","food","point_of_interest","establishment"],"formattedAddress":"112, Taiwan, Taipei City, Beitou District, Section 2, Linong St, 155號, Auditorium and Activity Center, 5樓","websiteUri":"http://lescargots.eatingout.com.tw/","displayName":{"languageCode":"en","text":"Butchart Gardens French"}},"lat":25.1205389,"lng":121.5135282},{"place":{"types":["restaurant","food","point_of_interest","establishment"],"formattedAddress":"No. 99號, Section 1, Shipai Rd, Beitou District, Taipei City, Taiwan 112","websiteUri":"https://www.facebook.com/HiHiPotBeitou/","displayName":{"languageCode":"zh-TW","text":"喜喜鍋HiHiPot北投石牌店淡水線石牌美食小火鍋"}},"lat":25.1140131,"lng":121.5118376},{"place":{"types":["restaurant","food","point_of_interest","establishment"],"formattedAddress":"112, Taiwan, Taipei City, Beitou District, Section 1, Chongren Rd, 77號1樓","websiteUri":"https://m.facebook.com/mina.cafe.tw/","displayName":{"languageCode":"zh-TW","text":"Mina 創意廚房.咖啡"}},"lat":25.1261996,"lng":121.501641},{"place":{"types":["asian_restaurant","restaurant","food","point_of_interest","establishment"],"formattedAddress":"112, Taiwan, Taipei City, Beitou District, Section 1, Dadu Rd, 11號福安駕訓班旁2樓","websiteUri":"https://www.facebook.com/Ahungrestaurant","displayName":{"languageCode":"zh-TW","text":"阿鴻的菜(福安駕訓班旁)"}},"lat":25.1205718,"lng":121.4990514},{"place":{"types":["restaurant","food","point_of_interest","establishment"],"formattedAddress":"No. 461號, Section 2, Sanhe St, Beitou District, Taipei City, Taiwan 112","websiteUri":"","displayName":{"languageCode":"zh-TW","text":"龍線家大腸麵線雞排"}},"lat":25.1263724,"lng":121.5018576},{"place":{"types":["brunch_restaurant","breakfast_restaurant","cafe","restaurant","food","point_of_interest","establishment"],"formattedAddress":"No. 265號, Section 2, Linong St, Beitou District, Taipei City, Taiwan 112","websiteUri":"https://instagram.com/9to5__brunch?r=nametag","displayName":{"languageCode":"en","text":"95 Brunch"}},"lat":25.1189256,"lng":121.5146843},{"place":{"types":["wine_bar","bar","restaurant","food","point_of_interest","establishment"],"formattedAddress":"No. 69號, Lane 39, Section 1, Shipai Rd, Beitou District, Taipei City, Taiwan 112","websiteUri":"http://www.lacopaoscura.com/","displayName":{"languageCode":"zh-TW","text":"深杯子概念店 La Copa Oscura"}},"lat":25.115483,"lng":121.5096023}]