[{"place":{"types":["asian_restaurant","chinese_restaurant","restaurant","food","point_of_interest","establishment"],"formattedAddress":"No. 34之1號, Shuangcheng St, Zhongshan District, Taipei City, Taiwan 10491","websiteUri":"https://www.shinyeh.com.tw/content/zh/brand/Index.aspx?BrandId=1","displayName":{"languageCode":"en","text":"Shin Yeh Taiwanese Cuisine Main Restaurant"}},"lat":25.063034,"lng":121.5244775},{"place":{"types":["seafood_restaurant","restaurant","food","point_of_interest","establishment"],"formattedAddress":"No. 59, Section 3, Zhongshan N Rd, Zhongshan District, Taipei City, Taiwan 104","websiteUri":"http://www.hpw.com.tw/","displayName":{"languageCode":"en","text":"Hai Bawang Restaurant"}},"lat":25.0687067,"lng":121.5232921},{"place":{"types":["deli","food_store","restaurant","food","point_of_interest","store","establishment"],"formattedAddress":"No. 28號, Lane 183, Section 2, Zhongshan N Rd, Zhongshan District, Taipei City, Taiwan 104","websiteUri":"https://www.instagram.com/huang_ji_?igsh=MWZmd2F2YXFlY3NkZg==","displayName":{"languageCode":"en","text":"Huang Ji Braised Pork"}},"lat":25.0636732,"lng":121.5241737},{"place":{"types":["hotel","buffet_restaurant","lodging","restaurant","food","point_of_interest","establishment"],"formattedAddress":"103, Taiwan, Taipei City, Datong District, Section 3, Chengde Rd, 49號捷運 : 淡水線(紅)/中蘆線(橘民權西路站1號出口(有電扶梯)：步行約５分鐘即可到達","websiteUri":"https://www.santoshotel.com/","displayName":{"languageCode":"en","text":"Santos Hotel"}},"lat":25.0628632,"lng":121.5197213},{"place":{"types":["food_court","event_venue","restaurant","food","point_of_interest","establishment"],"formattedAddress":"No. 1號, Yumen St, Zhongshan District, Taipei City, Taiwan 10491","websiteUri":"http://www.majisquare.com/","displayName":{"languageCode":"en","text":"MAJI Square"}},"lat":25.0692554,"lng":121.5204522},{"place":{"types":["restaurant","food","point_of_interest","establishment"],"formattedAddress":"No. 215-8號, Section 2, Dihua St, Datong District, Taipei City, Taiwan 103","websiteUri":"https://www.facebook.com/oldnoodle/","displayName":{"languageCode":"en","text":"Old Noodle Shop"}},"lat":25.0703598,"lng":121.5117201},{"place":{"types":["japanese_restaurant","restaurant","food","point_of_interest","establishment"],"formattedAddress":"No. 25-1, Lane 10, Shuangcheng St, Zhongshan District, Taipei City, Taiwan 104","websiteUri":"https://www.facebook.com/10lanecurry/","displayName":{"languageCode":"en","text":"Lane 10 Curry Rice"}},"lat":25.0642432,"lng":121.5235707},{"place":{"types":["restaurant","food","point_of_interest","establishment"],"formattedAddress":"No. 31, Section 3, Zhongshan N Rd, Zhongshan District, Taipei City, Taiwan 104","websiteUri":"http://www.toponepot.com/","displayName":{"languageCode":"en","text":"Top One Pot Taipei Zhongshan N. Branch"}},"lat":25.0656779,"lng":121.5225279},{"place":{"types":["japanese_restaurant","restaurant","food","point_of_interest","establishment"],"formattedAddress":"No. 34號, Nong'an St, Zhongshan District, Taipei City, Taiwan 10491","websiteUri":"http://www.mitsuitaipei.com.tw/","displayName":{"languageCode":"en","text":"Mitsui Japanese Restaurant"}},"lat":25.0647701,"lng":121.5268633},{"place":{"types":["chinese_restaurant","food_store","restaurant","food","point_of_interest","store","establishment"],"formattedAddress":"104, Taiwan, Taipei City, Zhongshan District, Section 2, Zhongshan N Rd, 185號2樓","websiteUri":"https://www.10de10der.com/pages/10der-shop","displayName":{"languageCode":"en","text":"Shi De Restaurant"}},"lat":25.0638666,"lng":121.5226156},{"place":{"types":["restaurant","food","point_of_interest","establishment"],"formattedAddress":"No. 296, Minzu W Rd, Datong District, Taipei City, Taiwan 103","websiteUri":"https://www.facebook.com/laopaichang/","displayName":{"languageCode":"en","text":"Lao Pai Chang Pork Knuckle"}},"lat":25.0685318,"lng":121.5110668},{"place":{"types":["restaurant","food","point_of_interest","establishment"],"formattedAddress":"104, Taiwan, Taipei City, Zhongshan District, Shuangcheng St, 12-4號晴光市場內","websiteUri":"https://www.facebook.com/ShouXiShaoYiDing/","displayName":{"languageCode":"en","text":"Sukiyaki Ding - Twins shop"}},"lat":25.0646877,"lng":121.5241429},{"place":{"types":["restaurant","food","point_of_interest","establishment"],"formattedAddress":"No. 13號, Nong'an St, Zhongshan District, Taipei City, Taiwan 104029","websiteUri":"https://www.0800076666.com.tw/Chicken/Napolifriedchicken","displayName":{"languageCode":"en","text":"33 Fried Chicken Nong-an"}},"lat":25.0650849,"lng":121.5234849},{"place":{"types":["restaurant","food","point_of_interest","establishment"],"formattedAddress":"No. 12-4號, Shuangcheng St, Zhongshan District, Taipei City, Taiwan 104","websiteUri":"","displayName":{"languageCode":"en","text":"Qingguang Market"}},"lat":25.0646877,"lng":121.5241429},{"place":{"types":["japanese_restaurant","restaurant","food","point_of_interest","establishment"],"formattedAddress":"No. 32號, Minzu E Rd, Zhongshan District, Taipei City, Taiwan 104","websiteUri":"http://www.wanlinrestaurant.com.tw/","displayName":{"languageCode":"zh-TW","text":"丸林魯肉飯"}},"lat":25.0682463,"lng":121.5247756},{"place":{"types":["seafood_restaurant","japanese_restaurant","restaurant","food","point_of_interest","establishment"],"formattedAddress":"No. 5號, Lane 19, Shuangcheng St, Zhongshan District, Taipei City, Taiwan 104","websiteUri":"https://www.facebook.com/shabuhsd/","displayName":{"languageCode":"en","text":"Haoshiduo Shabu Shabu Shuangcheng"}},"lat":25.0654601,"lng":121.5246519},{"place":{"types":["hamburger_restaurant","catering_service","food_delivery","meal_takeaway","american_restaurant","food_store","restaurant","food","point_of_interest","store","establishment"],"formattedAddress":"104, Taiwan, Taipei City, Zhongshan District, Fushun St, 11號1樓","websiteUri":"","displayName":{"languageCode":"zh-TW","text":"TakeOut Burger\u0026Cafe 民權店 （不接待10歲以下幼童）"}},"lat":25.0637638,"lng":121.5213551},{"place":{"types":["fast_food_restaurant","hamburger_restaurant","brunch_restaurant","american_restaurant","restaurant","food","point_of_interest","establishment"],"formattedAddress":"No. 68號, Minquan W Rd, Zhongshan District, Taipei City, Taiwan 10491","websiteUri":"https://www.mcdonalds.com/tw/zh-tw.html","displayName":{"languageCode":"en","text":"McDonald's Taipei Minquan 3"}},"lat":25.0625933,"lng":121.5200162},{"place":{"types":["restaurant","food","point_of_interest","establishment"],"formattedAddress":"No. 46號, Changji St, Datong District, Taipei City, Taiwan 103","websiteUri":"","displayName":{"languageCode":"zh-TW","text":"紅昌吉豬血湯"}},"lat":25.0657315,"lng":121.5167129},{"place":{"types":["italian_restaurant","food_store","restaurant","food","point_of_interest","store","establishment"],"formattedAddress":"No. 36號, Jiuquan St, Datong District, Taipei City, Taiwan 103","websiteUri":"https://www.facebook.com/Bremen%E4%B8%8D%E8%90%8A%E6%A2%85%E5%9C%93%E5%B1%B1%E5%BA%97-1106337509513940/?__tn__=%2Cdk*F*F-R\u0026eid=ARCIUbJqKJ3v1yQ0LjZgXVfLuoJF5SIWsRbq4IiTp0yCyEw3SVQZeR0gVvMnswnBn5G5XTQxcEMNMyTh\u0026tn-str=k*F","displayName":{"languageCode":"zh-TW","text":"BREMEN 不萊梅 圓山店"}},"lat":25.0705325,"lng":121.5188852}]