[{"place":{"types":["chinese_restaurant","restaurant","food","point_of_interest","establishment"],"formattedAddress":"福林路 188號和190號, Shilin District, Taipei City, Taiwan 111","websiteUri":"https://villager.com.tw/","displayName":{"languageCode":"en","text":"Dimsum Kitchen"}},"lat":25.0966784,"lng":121.5328229},{"place":{"types":["fast_food_restaurant","hamburger_restaurant","brunch_restaurant","american_restaurant","restaurant","food","point_of_interest","establishment"],"formattedAddress":"No. 602, Section 5, Zhongshan N Rd, Shilin District, Taipei City, Taiwan 111","websiteUri":"https://www.mcdonalds.com/tw/zh-tw.html","displayName":{"languageCode":"en","text":"McDonald's Shilin Branch"}},"lat":25.0960742,"lng":121.5281684},{"place":{"types":["american_restaurant","juice_shop","hamburger_restaurant","brunch_restaurant","food_store","restaurant","food","point_of_interest","store","establishment"],"formattedAddress":"111, Taiwan, Taipei City, Shilin District, 福佳里美崙街86巷2號1樓","websiteUri":"https://www.facebook.com/marcus77083798/?ref=bookmarks","displayName":{"languageCode":"zh-TW","text":"小倉庫食研所"}},"lat":25.0907401,"lng":121.518201},{"place":{"types":["seafood_restaurant","chinese_restaurant","restaurant","food","point_of_interest","establishment"],"formattedAddress":"111, Taiwan, Taipei City, Shilin District, Jihe Rd, 130號b1","websiteUri":"http://tainanseafood.com/","displayName":{"languageCode":"en","text":"Tainan Seafood and Lounge"}},"lat":25.089234,"lng":121.52273},{"place":{"types":["restaurant","food","point_of_interest","establishment"],"formattedAddress":"No. 31號, Xiaodong St, Shilin District, Taipei City, Taiwan 111","websiteUri":"https://www.facebook.com/%E9%A3%9F%E4%BE%86%E9%81%8B%E8%BD%89-167885156593001/","displayName":{"languageCode":"zh-TW","text":"食來運轉"}},"lat":25.0893524,"lng":121.5262045},{"place":{"types":["meal_takeaway","restaurant","food","point_of_interest","establishment"],"formattedAddress":"No. 115號, Jihe Rd, Shilin District, Taipei City, Taiwan 111","websiteUri":"http://www.hotstar.com.tw/TW/Retail/ugC_Retail.asp?hidRetailID=228\u0026#Pagecontent","displayName":{"languageCode":"en","text":"Hot-Star"}},"lat":25.0897524,"lng":121.5102641},{"place":{"types":["japanese_restaurant","restaurant","food","point_of_interest","establishment"],"formattedAddress":"No. 35號, Daxi Rd, Shilin District, Taipei City, Taiwan 11143","websiteUri":"https://www.facebook.com/Hinata4035/","displayName":{"languageCode":"zh-TW","text":"日向洋食"}},"lat":25.0906636,"lng":121.5243921},{"place":{"types":["brunch_restaurant","coffee_shop","cafe","food_store","restaurant","food","point_of_interest","store","establishment"],"formattedAddress":"No. 21號, Lane 300, Jihe Rd, Shilin District, Taipei City, Taiwan 11162","websiteUri":"http://introandmore.com/","displayName":{"languageCode":"zh-TW","text":"INTRO Kitchen"}},"lat":25.0937373,"lng":121.5186014},{"place":{"types":["ramen_restaurant","japanese_restaurant","restaurant","food","point_of_interest","establishment"],"formattedAddress":"No. 22號, Lane 505, Section 5, Zhongshan N Rd, Shilin District, Taipei City, Taiwan 111","websiteUri":"https://www.facebook.com/kakuregaramen/","displayName":{"languageCode":"en","text":"Yinjia Ramen Shilin Branch"}},"lat":25.0932052,"lng":121.5271282},{"place":{"types":["korean_restaurant","restaurant","food","point_of_interest","establishment"],"formattedAddress":"No. 312號, Wenlin Rd, Shilin District, Taipei City, Taiwan 111","websiteUri":"https://www.facebook.com/jinshuxi2023","displayName":{"languageCode":"zh-TW","text":"金書西餐飲 韓國豬肉湯飯 돼지국밥"}},"lat":25.092148,"lng":121.5262299},{"place":{"types":["japanese_restaurant","restaurant","food","point_of_interest","establishment"],"formattedAddress":"No. 6號, Lane 235, Zhongzheng Rd, Shilin District, Taipei City, Taiwan 111","websiteUri":"https://www.instagram.com/p/CTOVoYUBkFu/?igshid=YmMyMTA2M2Y=","displayName":{"languageCode":"zh-TW","text":"寶屋(無訂位服務）"}},"lat":25.0949201,"lng":121.5259846},{"place":{"types":["brunch_restaurant","cafe","food_store","restaurant","food","point_of_interest","store","establishment"],"formattedAddress":"No. 74號, Meide St, Shilin District, Taipei City, Taiwan 111","websiteUri":"https://www.facebook.com/secondlifecoffeeplusshilin","displayName":{"languageCode":"en","text":"Second Life Coffee Plus"}},"lat":25.0957824,"lng":121.5251466},{"place":{"types":["restaurant","food","point_of_interest","establishment"],"formattedAddress":"No. 20號, Lane 505, Section 5, Zhongshan N Rd, Shilin District, Taipei City, Taiwan 111","websiteUri":"https://www.instagram.com/goldensonkoreapasta/","displayName":{"languageCode":"en","text":"Golden Son Korea Pasta (Shilin)"}},"lat":25.0932344,"lng":121.5272067},{"place":{"types":["restaurant","food","point_of_interest","establishment"],"formattedAddress":"No. 2號, Lane 101, Wenlin Rd, Shilin District, Taipei City, Taiwan 111","websiteUri":"https://www.facebook.com/chickenrc/","displayName":{"languageCode":"zh-TW","text":"雞老闆 桶仔雞 士林夜市店"}},"lat":25.0881435,"lng":121.525947},{"place":{"types":["restaurant","food","point_of_interest","establishment"],"formattedAddress":"No. 179號, Zhongzheng Rd, Shilin District, Taipei City, Taiwan 111","websiteUri":"https://www.giguo.com.tw/","displayName":{"languageCode":"en","text":"Giguo Taipei Shilin Zhongzheng Branch"}},"lat":25.0955068,"lng":121.5275873},{"place":{"types":["restaurant","food","point_of_interest","establishment"],"formattedAddress":"No. 183-185, Zhongzheng Rd, Shilin District, Taipei City, Taiwan 111","websiteUri":"https://www.12hotpot.com.tw/","displayName":{"languageCode":"en","text":"12 Hotpot Taipei Shilin Zhongzheng Branch"}},"lat":25.0954753,"lng":121.5274527},{"place":{"types":["restaurant","food","point_of_interest","establishment"],"formattedAddress":"No. 71-1號, Fuguo Rd, Shilin District, Taipei City, Taiwan 111","websiteUri":"https://www.chientu.com.tw/","displayName":{"languageCode":"en","text":"Chien Tu Shilin Zhishan Branch"}},"lat":25.1015625,"lng":121.5231312},{"place":{"types":["restaurant","food","point_of_interest","establishment"],"formattedAddress":"111, Taiwan, Taipei City, Shilin District, Wenlin Rd, 173號2F","websiteUri":"","displayName":{"languageCode":"en","text":"Modern Toilet Theme Restaurant"}},"lat":25.0895914,"lng":121.5268197},{"place":{"types":["korean_restaurant","bar_and_grill","bar","restaurant","food","point_of_interest","establishment"],"formattedAddress":"No. 7號, Dabei Rd, Shilin District, Taipei City, Taiwan 111","websiteUri":"https://www.facebook.com/xinshanbulgogi","displayName":{"languageCode":"zh-TW","text":"新山韓國烤肉"}},"lat":25.0896409,"lng":121.526677},{"place":{"types":["italian_restaurant","restaurant","food","point_of_interest","establishment"],"formattedAddress":"No. 514-1號, Wenlin Rd, Shilin District, Taipei City, Taiwan 111","websiteUri":"https://www.facebook.com/bremen20160227/?fref=ts","displayName":{"languageCode":"en","text":"BREMEN"}},"lat":25.0970421,"lng":121.524202}]