[{"place":{"types":["chinese_restaurant","banquet_hall","wedding_venue","event_venue","restaurant","food","point_of_interest","establishment"],"formattedAddress":"231, Taiwan, New Taipei City, Xindian District, Section 3, Beixin Rd, 207之1號1樓","websiteUri":"https://www.pengyuan.com.tw/branch/xindian","displayName":{"languageCode":"en","text":"Peng's Gourmet \u0026 Banquet Xindian Branch"}},"lat":24.9848767,"lng":121.5399642},{"place":{"types":["wedding_venue","event_venue","restaurant","food","point_of_interest","establishment"],"formattedAddress":"No. 205, Section 3, Beixin Rd, Xindian District, New Taipei City, Taiwan 231","websiteUri":"https://how-dine.com.tw/","displayName":{"languageCode":"en","text":"How Dine Restaurant"}},"lat":24.9842565,"lng":121.5401405},{"place":{"types":["breakfast_restaurant","restaurant","food","point_of_interest","establishment"],"formattedAddress":"No. 438號, Zhongzheng Rd, Xindian District, New Taipei City, Taiwan 231","websiteUri":"","displayName":{"languageCode":"zh-TW","text":"旭達豆漿店"}},"lat":24.9783463,"lng":121.5342777},{"place":{"types":["sushi_restaurant","japanese_restaurant","restaurant","food","point_of_interest","establishment"],"formattedAddress":"No. 13號, Section 3, Zhongxing Rd, Xindian District, New Taipei City, Taiwan 231","websiteUri":"http://www.sushiro.com.tw/","displayName":{"languageCode":"en","text":"SUSHIRO Xindian Zhongxing Rd. Branch"}},"lat":24.9788393,"lng":121.5447987},{"place":{"types":["restaurant","food","point_of_interest","establishment"],"formattedAddress":"23141, Taiwan, New Taipei City, Xindian District, Minquan Rd, 100號1F","websiteUri":"https://www.facebook.com/chinhuajiao/","displayName":{"languageCode":"en","text":"Chin Hua Jiao Xindian Minquan Branch"}},"lat":24.9831375,"lng":121.5362962},{"place":{"types":["italian_restaurant","restaurant","food","point_of_interest","establishment"],"formattedAddress":"No. 274之2號, Jingxing Rd, Wenshan District, Taipei City, Taiwan 116","websiteUri":"https://www.facebook.com/mintshihhsin/?fref=ts","displayName":{"languageCode":"zh-TW","text":"MINT PASTA 綠薄荷麵食坊"}},"lat":24.9982285,"lng":121.544415},{"place":{"types":["korean_restaurant","restaurant","food","point_of_interest","establishment"],"formattedAddress":"No. 8號, Alley 2, Lane 1, Ershizhang Rd, Xindian District, New Taipei City, Taiwan 231","websiteUri":"https://www.facebook.com/funfunpot/","displayName":{"languageCode":"zh-TW","text":"FUN鍋子"}},"lat":24.9823553,"lng":121.5403043},{"place":{"types":["restaurant","food","point_of_interest","establishment"],"formattedAddress":"No. 31號, Yonghua St, Xindian District, New Taipei City, Taiwan 231","websiteUri":"https://inline.app/booking/jimmyontheroad/1983","displayName":{"languageCode":"zh-TW","text":"Jimmy on the road 居米先生在路上"}},"lat":24.9763224,"lng":121.5438635},{"place":{"types":["asian_restaurant","deli","chinese_restaurant","food_store","restaurant","food","point_of_interest","store","establishment"],"formattedAddress":"No. 414號, Zhongzheng Rd, Xindian District, New Taipei City, Taiwan 231","websiteUri":"https://m.facebook.com/pages/category/Diner/%E6%96%B0%E5%BA%97%E5%8D%80-%E9%98%BF%E8%98%AD%E5%A7%8A%E8%96%91%E6%AF%8D%E9%B4%A8-196381633768050/","displayName":{"languageCode":"zh-TW","text":"新店阿蘭姊薑母鴨"}},"lat":24.9778303,"lng":121.5345607},{"place":{"types":["chinese_restaurant","restaurant","food","point_of_interest","establishment"],"formattedAddress":"No. 225號, Section 3, Zhongxing Rd, Xindian District, New Taipei City, Taiwan 231","websiteUri":"","displayName":{"languageCode":"en","text":"Ahui Beef Restaurant"}},"lat":24.9830597,"lng":121.5430698},{"place":{"types":["chinese_restaurant","dessert_restaurant","restaurant","food","point_of_interest","establishment"],"formattedAddress":"No. 25號, Minquan Rd, Xindian District, New Taipei City, Taiwan 231","websiteUri":"http://www.suhung.com.tw/","displayName":{"languageCode":"en","text":"Suhang Restaurant — Dapinglin Branch"}},"lat":24.9827988,"lng":121.5410118},{"place":{"types":["japanese_restaurant","restaurant","food","point_of_interest","establishment"],"formattedAddress":"No. 145號, Section 3, Beixin Rd, Xindian District, New Taipei City, Taiwan 231","websiteUri":"","displayName":{"languageCode":"zh-TW","text":"饗醬燒烤【新店店】"}},"lat":24.9832373,"lng":121.5411281},{"place":{"types":["restaurant","food","point_of_interest","establishment"],"formattedAddress":"231, Taiwan, New Taipei City, Xindian District, Minquan Rd, 82號2樓","websiteUri":"https://www.giguo.com.tw/","displayName":{"languageCode":"zh-TW","text":"聚 日式鍋物 新店民權店"}},"lat":24.9830944,"lng":121.5372088},{"place":{"types":["deli","food_store","restaurant","food","point_of_interest","store","establishment"],"formattedAddress":"No. 52號, Bao'an St, Xindian District, New Taipei City, Taiwan 231","websiteUri":"","displayName":{"languageCode":"en","text":"Xiao Tong An Noodles"}},"lat":24.9835437,"lng":121.5417811},{"place":{"types":["korean_restaurant","restaurant","food","point_of_interest","establishment"],"formattedAddress":"231, Taiwan, New Taipei City, Xindian District, Zhongzheng Rd, 542之3號","websiteUri":"https://www.facebook.com/koreafood8/?locale=zh_TW","displayName":{"languageCode":"zh-TW","text":"朝鮮味"}},"lat":24.9853306,"lng":121.5337444},{"place":{"types":["fast_food_restaurant","hamburger_restaurant","brunch_restaurant","american_restaurant","restaurant","food","point_of_interest","establishment"],"formattedAddress":"231, Taiwan, New Taipei City, Xindian District, Section 3, Beixin Rd, 51號1-2樓","websiteUri":"https://www.mcdonalds.com/tw/zh-tw.html","displayName":{"languageCode":"en","text":"McDonald's Xindian Beixin 2"}},"lat":24.9805422,"lng":121.5416675},{"place":{"types":["steak_house","restaurant","food","point_of_interest","establishment"],"formattedAddress":"231, Taiwan, New Taipei City, Xindian District, Minquan Rd, 82號2樓","websiteUri":"https://www.tasty.com.tw/","displayName":{"languageCode":"en","text":"TASTy Xindian Minquan Branch"}},"lat":24.9830944,"lng":121.5372088},{"place":{"types":["meal_delivery","food_delivery","meal_takeaway","chinese_restaurant","restaurant","food","point_of_interest","establishment"],"formattedAddress":"No. 230號, Jianguo Rd, Xindian District, New Taipei City, Taiwan 231","websiteUri":"https://www.facebook.com/kaosiumeikitchen","displayName":{"languageCode":"en","text":"Kao's Siu Mei Restaurant"}},"lat":24.9815953,"lng":121.5378033},{"place":{"types":["japanese_restaurant","restaurant","food","point_of_interest","establishment"],"formattedAddress":"No. 38號, Minquan Rd, Xindian District, New Taipei City, Taiwan 231","websiteUri":"http://www.chientu.com.tw/","displayName":{"languageCode":"en","text":"CHIEN TU Xindian Minquan Branch"}},"lat":24.9830652,"lng":121.5406862},{"place":{"types":["chinese_restaurant","restaurant","food","point_of_interest","establishment"],"formattedAddress":"No. 36號, Bao'an St, Xindian District, New Taipei City, Taiwan 231","websiteUri":"https://www.facebook.com/%E6%B0%B8%E5%93%A5%E6%B8%AF%E5%BC%8F%E9%BB%9E%E5%BF%83%E5%9D%8A-392182124208934/","displayName":{"languageCode":"zh-TW","text":"永哥港式點心坊"}},"lat":24.9825346,"lng":121.542297}]