[{"place":{"types":["deli","food_store","store","restaurant","food","point_of_interest","establishment"],"formattedAddress":"112, Taiwan, Taipei City, Beitou District, Huanggang Rd, 33號2 樓","websiteUri":"https://www.facebook.com/pages/%E7%9F%AE%E4%BB%94%E8%B2%A1%E6%BB%B7%E8%82%89%E9%A3%AF/164372483615701","displayName":{"languageCode":"en","text":"Ai Zi Cai Braised Pork Rice"}},"lat":25.1317215,"lng":121.5037478},{"place":{"types":["asian_restaurant","chinese_restaurant","restaurant","food","point_of_interest","establishment"],"formattedAddress":"112, Taiwan, Taipei City, Beitou District, Section 2, Zhongyang S Rd, 14-1號捷運奇岩站","websiteUri":"","displayName":{"languageCode":"zh-TW","text":"傳承茶蝦飯 我家客家小館"}},"lat":25.1270323,"lng":121.5000746},{"place":{"types":["vegetarian_restaurant","restaurant","food","point_of_interest","establishment"],"formattedAddress":"No. 2號, Lane 516, Daye Rd, Beitou District, Taipei City, Taiwan 112","websiteUri":"","displayName":{"languageCode":"en","text":"Amalfi Coffee"}},"lat":25.132652,"lng":121.4972948},{"place":{"types":["meal_takeaway","chinese_restaurant","restaurant","food","point_of_interest","establishment"],"formattedAddress":"No. 5, Gongguan Rd, Beitou District, Taipei City, Taiwan 112","websiteUri":"","displayName":{"languageCode":"zh-TW","text":"陳季炸雞 北投店"}},"lat":25.1334446,"lng":121.5025775},{"place":{"types":["seafood_restaurant","restaurant","food","point_of_interest","establishment"],"formattedAddress":"No. 512號, Daye Rd, Beitou District, Taipei City, Taiwan 112","websiteUri":"https://chiaoyuan100.weebly.com/","displayName":{"languageCode":"zh-TW","text":"喬園海鮮料理餐廳"}},"lat":25.13336,"lng":121.496054},{"place":{"types":["liquor_store","japanese_restaurant","store","restaurant","food","point_of_interest","establishment"],"formattedAddress":"No. 24號, Lane 30, Wenquan Rd, Beitou District, Taipei City, Taiwan 112","websiteUri":"https://inline.app/booking/-M4C7F7gVAP3pt93e5Mi:inline-live-1/-M4C7FBh6RXSh69bvQPX","displayName":{"languageCode":"zh-TW","text":"蔦燒日式居酒屋-北投店"}},"lat":25.1333463,"lng":121.5031865},{"place":{"types":["ramen_restaurant","japanese_restaurant","restaurant","food","point_of_interest","establishment"],"formattedAddress":"No. 3號, Lane 8, Yuren Rd, Beitou District, Taipei City, Taiwan 112009","websiteUri":"https://www.facebook.com/thesaltramen","displayName":{"languageCode":"zh-TW","text":"長生塩人 北投車站"}},"lat":25.1327138,"lng":121.4987251},{"place":{"types":["fast_food_restaurant","hamburger_restaurant","brunch_restaurant","american_restaurant","restaurant","food","point_of_interest","establishment"],"formattedAddress":"No. 15號, Section 2, Beitou Rd, Beitou District, Taipei City, Taiwan 112","websiteUri":"https://www.mcdonalds.com/tw/zh-tw.html","displayName":{"languageCode":"en","text":"McDonald’s Taipei Daye"}},"lat":25.1311788,"lng":121.4984114},{"place":{"types":["chinese_restaurant","restaurant","food","point_of_interest","establishment"],"formattedAddress":"No. 478號, Daye Rd, Beitou District, Taipei City, Taiwan 112","websiteUri":"https://chiaoyuan100.weebly.com/","displayName":{"languageCode":"zh-TW","text":"喬園二店"}},"lat":25.1323247,"lng":121.4962618},{"place":{"types":["seafood_restaurant","chinese_restaurant","restaurant","food","point_of_interest","establishment"],"formattedAddress":"No. 75號, Section 1, Beitou Rd, Beitou District, Taipei City, Taiwan 112","websiteUri":"https://www.facebook.com/pages/%E9%A6%AC%E5%A0%B4%E6%B5%B7%E9%AE%AE%E9%A4%90%E5%BB%B3/1555630928077651?fref=ts","displayName":{"languageCode":"zh-TW","text":"馬場台菜熱炒"}},"lat":25.1282506,"lng":121.50012},{"place":{"types":["ramen_restaurant","japanese_restaurant","restaurant","food","point_of_interest","establishment"],"formattedAddress":"No. 27號, Datong St, Beitou District, Taipei City, Taiwan 112","websiteUri":"https://www.facebook.com/rakuzan428/","displayName":{"languageCode":"zh-TW","text":"樂山窄巷拉麵"}},"lat":25.132952,"lng":121.499027},{"place":{"types":["restaurant","japanese_restaurant","food","point_of_interest","establishment"],"formattedAddress":"No. 32號, Lane 123, Jili St, Beitou District, Taipei City, Taiwan 112","websiteUri":"","displayName":{"languageCode":"zh-TW","text":"咔豬 KATSU 超厚切豬排｜挑戰全台最厚（厚切日式炸豬排、原肉牛肋咖哩飯）"}},"lat":25.1193183,"lng":121.5061314},{"place":{"types":["restaurant","pizza_restaurant","juice_shop","coffee_shop","vegetarian_restaurant","cafe","food_store","store","food","point_of_interest","establishment"],"formattedAddress":"No. 7號, Section 2, Beitou Rd, Beitou District, Taipei City, Taiwan 112","websiteUri":"https://www.facebook.com/dillcafe/","displayName":{"languageCode":"zh-TW","text":"蒔蘿香草蔬食餐廳"}},"lat":25.130487,"lng":121.499264},{"place":{"types":["restaurant","food","point_of_interest","establishment"],"formattedAddress":"No. 119號, Guangming Rd, Beitou District, Taipei City, Taiwan 112","websiteUri":"https://instagram.com/kaomama_rice.food?igshid=YmMyMTA2M2Y=","displayName":{"languageCode":"zh-TW","text":"高媽媽傳統米食"}},"lat":25.1337916,"lng":121.5020185},{"place":{"types":["restaurant","italian_restaurant","food","point_of_interest","establishment"],"formattedAddress":"No. 9號, Lane 2, Guangming Rd, Beitou District, Taipei City, Taiwan 112","websiteUri":"https://vivace-restaurant.weebly.com/","displayName":{"languageCode":"en","text":"VIVACE"}},"lat":25.1314699,"lng":121.499422},{"place":{"types":["restaurant","food","point_of_interest","establishment"],"formattedAddress":"No. 9號, Section 2, Beitou Rd, Beitou District, Taipei City, Taiwan 112","websiteUri":"https://www.royalpark.com.tw/","displayName":{"languageCode":"en","text":"Royal Host"}},"lat":25.13063,"lng":121.498658},{"place":{"types":["japanese_restaurant","restaurant","food","point_of_interest","establishment"],"formattedAddress":"112, Taiwan, Taipei City, Beitou District, Yuren Rd, 64號一樓","websiteUri":"https://www.facebook.com/%E5%AD%90%E5%A5%B3-%E7%B2%A5%E5%93%81%E4%B8%B2%E7%89%A9%E6%B5%B7%E9%AE%AE%E6%89%8B%E4%BD%9C-539512819910460/","displayName":{"languageCode":"en","text":"Zinu Izakaya Restaurant"}},"lat":25.1337573,"lng":121.497669},{"place":{"types":["hamburger_restaurant","fast_food_restaurant","vegetarian_restaurant","meal_delivery","food_delivery","american_restaurant","restaurant","food","point_of_interest","establishment"],"formattedAddress":"No. 36-1號, Section 2, Zhongyang S Rd, Beitou District, Taipei City, Taiwan 112","websiteUri":"https://lin.ee/uwMWicO","displayName":{"languageCode":"zh-TW","text":"Burger Su 美式蔬食漢堡-北投店"}},"lat":25.1248501,"lng":121.5001533},{"place":{"types":["bar_and_grill","deli","bar","japanese_restaurant","food_store","store","restaurant","food","point_of_interest","establishment"],"formattedAddress":"No. 20號, Daxing St, Beitou District, Taipei City, Taiwan 112","websiteUri":"https://www.facebook.com/profile.php?id=100087223059365","displayName":{"languageCode":"en","text":"Cang Ma Izakaya Restaurant"}},"lat":25.1298486,"lng":121.4983844},{"place":{"types":["brunch_restaurant","hamburger_restaurant","american_restaurant","cafe","food_store","store","restaurant","food","point_of_interest","establishment"],"formattedAddress":"No. 52號, Daxing St, Beitou District, Taipei City, Taiwan 112","websiteUri":"https://www.instagram.com/rhyme_cafe","displayName":{"languageCode":"zh-TW","text":"Rhyme Café 韻咖啡"}},"lat":25.1303252,"lng":121.5002851}]