[{"place":{"types":["restaurant","food","point_of_interest","establishment"],"formattedAddress":"No. 8-1號, Emei St, Wanhua District, Taipei City, Taiwan 108","websiteUri":"https://aychungflourricenoodle.shop/","displayName":{"languageCode":"en","text":"Ay-Chung Flour-Rice Noodle"}},"lat":25.0433092,"lng":121.5076117},{"place":{"types":["supermarket","deli","sushi_restaurant","confectionery","grocery_store","japanese_restaurant","restaurant","food_store","food","store","point_of_interest","establishment"],"formattedAddress":"No. 56號, Section 2, Wuchang St, Wanhua District, Taipei City, Taiwan 108","websiteUri":"https://www.dondondonki.com/tw/","displayName":{"languageCode":"en","text":"DON DON DONKI | Ximen Store"}},"lat":25.0446257,"lng":121.506883},{"place":{"types":["japanese_restaurant","restaurant","food","point_of_interest","establishment"],"formattedAddress":"No. 116號, Section 2, Guiyang St, Wanhua District, Taipei City, Taiwan 108","websiteUri":"https://sanweishihtang.weebly.com/","displayName":{"languageCode":"en","text":"SUNWAY"}},"lat":25.0399066,"lng":121.50273},{"place":{"types":["wedding_venue","banquet_hall","chinese_restaurant","event_venue","restaurant","food","point_of_interest","establishment"],"formattedAddress":"108, Taiwan, Taipei City, Wanhua District, Bangka Blvd, 101號13 樓","websiteUri":"https://www.g-skyview.com/","displayName":{"languageCode":"en","text":"Great Skyview"}},"lat":25.0333147,"lng":121.5014096},{"place":{"types":["chinese_restaurant","restaurant","food","point_of_interest","establishment"],"formattedAddress":"1樓, No. 88號, Section 1, Zhonghua Rd, Wanhua District, Taipei City, Taiwan 108","websiteUri":"https://www.diaominasia.com/","displayName":{"languageCode":"en","text":"Diao Min Asia Sauerkraut Fish Ximen Zhonghua Branch"}},"lat":25.0450651,"lng":121.50852},{"place":{"types":["restaurant","food","point_of_interest","establishment"],"formattedAddress":"108412, Taiwan, Taipei City, Wanhua District, Guilin Rd, 1號4樓","websiteUri":"https://inline.app/booking/-LamXb5SAQN7JcJfyRKi:inline-live-2a466/-N425UpaiGCtYJn0UCMl?language=zh-tw","displayName":{"languageCode":"en","text":"Haidilao Ximen Branch"}},"lat":25.037703,"lng":121.5061818},{"place":{"types":["deli","chinese_restaurant","restaurant","food_store","food","store","point_of_interest","establishment"],"formattedAddress":"108, Taiwan, Taipei City, Wanhua District, 漢中街32巷1號","websiteUri":"","displayName":{"languageCode":"en","text":"Tian Tian Li Delicacies"}},"lat":25.0451719,"lng":121.5076227},{"place":{"types":["chinese_restaurant","restaurant","food","point_of_interest","establishment"],"formattedAddress":"No. 79號, Kangding Rd, Wanhua District, Taipei City, Taiwan 108","websiteUri":"https://www.facebook.com/Yi.Jia.Zi.Snack/","displayName":{"languageCode":"en","text":"Yi Jia Zi"}},"lat":25.0404022,"lng":121.5021711},{"place":{"types":["restaurant","food","point_of_interest","establishment"],"formattedAddress":"No. 41號, Neijiang St, Wanhua District, Taipei City, Taiwan 108","websiteUri":"https://www.facebook.com/simonnoodleshop/","displayName":{"languageCode":"en","text":"Ximen Noodle"}},"lat":25.041694,"lng":121.505581},{"place":{"types":["restaurant","food","point_of_interest","establishment"],"formattedAddress":"10844, Taiwan, Taipei City, Wanhua District, Chengdu Rd, 81號B1","websiteUri":"https://inline.app/booking/-KO9-zyZTRpTH7LNAe99/-NvFDHdbyHM7P2vbgoDP?language=zh-tw","displayName":{"languageCode":"zh-TW","text":"詹記麻辣火鍋-西門大世界"}},"lat":25.0431071,"lng":121.505162},{"place":{"types":["seafood_restaurant","restaurant","food","point_of_interest","establishment"],"formattedAddress":"No. 105, Section 1, Tingzhou Rd, Zhongzheng District, Taipei City, Taiwan 100","websiteUri":"http://www.taipei-seafood.com.tw/","displayName":{"languageCode":"en","text":"SHIN TUNG NAN SEAFOOD Tingzhou Branch"}},"lat":25.0286429,"lng":121.5089642},{"place":{"types":["restaurant","food","point_of_interest","establishment"],"formattedAddress":"108, Taiwan, Taipei City, Wanhua District, Xining Rd, 157號2f","websiteUri":"https://www.mala.com.tw/Home/BrandIndex?verificationCode=5F3863B104D33FAF3A27B2A7F4E7183D","displayName":{"languageCode":"en","text":"Mala Hot Pot Ximen Branch"}},"lat":25.0433708,"lng":121.5062369},{"place":{"types":["japanese_restaurant","restaurant","food","point_of_interest","establishment"],"formattedAddress":"108, Taiwan, Taipei City, Wanhua District, Emei St, 37號4樓","websiteUri":"https://www.powerofmeat.com.tw/","displayName":{"languageCode":"en","text":"Power of Meat Ximen Emei Branch"}},"lat":25.0435587,"lng":121.5071583},{"place":{"types":["restaurant","food","point_of_interest","establishment"],"formattedAddress":"108, Taiwan, Taipei City, Wanhua District, Section 1, Zhonghua Rd, 192號1樓","websiteUri":"http://www.facebook.com/kingfood58/","displayName":{"languageCode":"en","text":"Hotpot Restuarant Emperor House"}},"lat":25.0387744,"lng":121.506892},{"place":{"types":["sushi_restaurant","japanese_restaurant","restaurant","food","point_of_interest","establishment"],"formattedAddress":"100, Taiwan, Taipei City, Zhongzheng District, Section 1, Zhonghua Rd, 41號1樓","websiteUri":"http://www.sushiro.com.tw/","displayName":{"languageCode":"en","text":"SUSHIRO Taipei Zhonghua Restaurant"}},"lat":25.0449144,"lng":121.5095061},{"place":{"types":["chinese_restaurant","restaurant","food","point_of_interest","establishment"],"formattedAddress":"108, Taiwan, Taipei City, Wanhua District, Lane 25, Kangding Rd, 42之一號1樓","websiteUri":"https://zh-tw.facebook.com/%E7%9C%9F%E5%B7%9D%E5%91%B3-213513902010751/","displayName":{"languageCode":"zh-TW","text":"真川味1店"}},"lat":25.0435427,"lng":121.5046841},{"place":{"types":["restaurant","food","point_of_interest","establishment"],"formattedAddress":"108, Taiwan, Taipei City, Wanhua District, Xining Rd, 70號B1之15室","websiteUri":"https://www.facebook.com/%E8%A5%BF%E9%96%80%E7%94%BA%E8%90%AC%E5%B9%B4%E8%80%81%E5%B1%B1%E6%9D%B1%E7%89%9B%E8%82%89%E5%AE%B6%E5%B8%B8%E9%BA%B5%E5%BA%97-286031141424176","displayName":{"languageCode":"en","text":"Lao Shandong Homemade Noodles"}},"lat":25.0449463,"lng":121.5063803},{"place":{"types":["restaurant","food","point_of_interest","establishment"],"formattedAddress":"100, Taiwan, Taipei City, Zhongzheng District, Section 1, Zhonghua Rd, 55號2F","websiteUri":"https://www.wulao.com.tw/","displayName":{"languageCode":"en","text":"Wulao Pot"}},"lat":25.0427074,"lng":121.5089386},{"place":{"types":["restaurant","food","point_of_interest","establishment"],"formattedAddress":"108, Taiwan, Taipei City, Wanhua District, Chengdu Rd, 81號4 樓","websiteUri":"https://yumii.tw/e06bc9","displayName":{"languageCode":"zh-TW","text":"新大戈壁蒙古烤肉｜現場演奏或駐唱｜新增烤肉送桌服務｜麻辣牛油鍋｜番茄鍋"}},"lat":25.0431071,"lng":121.505162},{"place":{"types":["italian_restaurant","restaurant","food","point_of_interest","establishment"],"formattedAddress":"108, Taiwan, Taipei City, Wanhua District, Lane 50, Section 2, Wuchang St, 10號2樓","websiteUri":"https://www.zunhongtw.com/","displayName":{"languageCode":"en","text":"Just Amazing Inside"}},"lat":25.0438883,"lng":121.5066669}]