[{"place":{"types":["seafood_restaurant","restaurant","food","point_of_interest","establishment"],"formattedAddress":"No. 88, Zhongshan 1st Rd, Luzhou District, New Taipei City, Taiwan 247","websiteUri":"http://www.hpw.com.tw/","displayName":{"languageCode":"en","text":"Hai Pa Wang Luzhou Restaurant"}},"lat":25.0813902,"lng":121.4783254},{"place":{"types":["fast_food_restaurant","hamburger_restaurant","brunch_restaurant","american_restaurant","restaurant","food","point_of_interest","establishment"],"formattedAddress":"No. 392-1號, Section 4, Sanhe Rd, Sanchong District, New Taipei City, Taiwan 241","websiteUri":"https://www.mcdonalds.com/tw/zh-tw.html","displayName":{"languageCode":"en","text":"McDonald's"}},"lat":25.0792448,"lng":121.4817625},{"place":{"types":["hotel","lodging","restaurant","food","point_of_interest","establishment"],"formattedAddress":"247, Taiwan, New Taipei City, Luzhou District, Jixian Rd, 402號3樓","websiteUri":"http://laclehotel.com.tw/","displayName":{"languageCode":"en","text":"LaCle’ Hotel Taipei"}},"lat":25.0820839,"lng":121.4799862},{"place":{"types":["chinese_restaurant","restaurant","food","point_of_interest","establishment"],"formattedAddress":"247, Taiwan, New Taipei City, Luzhou District, Minzu Rd, 170號1樓","websiteUri":"https://store.dudooeat.com/order/store/d80e0738315d42cfbbc634726278c57e","displayName":{"languageCode":"zh-TW","text":"四木欣福 蘆洲店"}},"lat":25.0864976,"lng":121.4798687},{"place":{"types":["deli","food_store","restaurant","food","store","point_of_interest","establishment"],"formattedAddress":"No. 206號, Xiwei St, Sanchong District, New Taipei City, Taiwan 241","websiteUri":"","displayName":{"languageCode":"en","text":"Chih Kao Restaurant"}},"lat":25.0811343,"lng":121.4881539},{"place":{"types":["wedding_venue","event_venue","restaurant","food","point_of_interest","establishment"],"formattedAddress":"No. 283號, Jixian Rd, Luzhou District, New Taipei City, Taiwan 247","websiteUri":"https://hocom.tw/web/Home/index?key=373607998025","displayName":{"languageCode":"zh-TW","text":"富基婚宴會館 蘆洲館"}},"lat":25.0829415,"lng":121.4809845},{"place":{"types":["restaurant","banquet_hall","seafood_restaurant","event_venue","food","point_of_interest","establishment"],"formattedAddress":"No. 395號, Jixian Rd, Luzhou District, New Taipei City, Taiwan 247","websiteUri":"https://www.facebook.com/LoveWindmill/","displayName":{"languageCode":"zh-TW","text":"大風車婚宴餐廳"}},"lat":25.082039,"lng":121.4804196},{"place":{"types":["steak_house","restaurant","food","point_of_interest","establishment"],"formattedAddress":"247, Taiwan, New Taipei City, Luzhou District, Jixian Rd, 409號2 樓","websiteUri":"https://www.tasty.com.tw/","displayName":{"languageCode":"en","text":"TASTY Luzhou Jixian Branch"}},"lat":25.0810661,"lng":121.4800021},{"place":{"types":["fast_food_restaurant","restaurant","food","point_of_interest","establishment"],"formattedAddress":"No. 193, Section 4, Sanhe Rd, Sanchong District, New Taipei City, Taiwan 241","websiteUri":"https://www.kfcclub.com.tw/","displayName":{"languageCode":"en","text":"KFC"}},"lat":25.0792566,"lng":121.4822775},{"place":{"types":["breakfast_restaurant","restaurant","food","point_of_interest","establishment"],"formattedAddress":"247, Taiwan, New Taipei City, Luzhou District, 信義路306號","websiteUri":"https://www.facebook.com/Q0935723311/","displayName":{"languageCode":"zh-TW","text":"（葉）蘆洲手工小籠包"}},"lat":25.0878253,"lng":121.4774612},{"place":{"types":["brunch_restaurant","american_restaurant","restaurant","food","point_of_interest","establishment"],"formattedAddress":"No. 6號, Lane 33, Minzu Rd, Luzhou District, New Taipei City, Taiwan 247","websiteUri":"http://facebook.com/sevenforest77","displayName":{"languageCode":"zh-TW","text":"森 · 七七"}},"lat":25.0853755,"lng":121.4778949},{"place":{"types":["restaurant","food","point_of_interest","establishment"],"formattedAddress":"No. 80, Section 3, Ziqiang Rd, Sanchong District, New Taipei City, Taiwan 24154","websiteUri":"http://www.facebook.com/pages/%E4%B8%89%E5%92%8C%E5%A4%A7%E7%9B%A4%E7%86%B1%E7%82%92/228373533892083","displayName":{"languageCode":"zh-TW","text":"三和大盤熱炒"}},"lat":25.0744747,"lng":121.4869891},{"place":{"types":["seafood_restaurant","restaurant","food","point_of_interest","establishment"],"formattedAddress":"No. 308, Jixian Rd, Luzhou District, New Taipei City, Taiwan 247","websiteUri":"https://zh-tw.facebook.com/nanhai308/","displayName":{"languageCode":"zh-TW","text":"南海漁村 蘆洲店"}},"lat":25.0850118,"lng":121.4813083},{"place":{"types":["japanese_restaurant","restaurant","food","point_of_interest","establishment"],"formattedAddress":"247, Taiwan, New Taipei City, Luzhou District, Zhongshan 1st Rd, 8號5F","websiteUri":"http://www.mo-mo.com.tw/","displayName":{"languageCode":"en","text":"MO-MO-PARADISE St. Ignatius Plaza Branch"}},"lat":25.0805359,"lng":121.4805374},{"place":{"types":["chinese_restaurant","restaurant","food","point_of_interest","establishment"],"formattedAddress":"247, Taiwan, New Taipei City, Luzhou District, Desheng St, 22號1樓","websiteUri":"","displayName":{"languageCode":"zh-TW","text":"添丁切仔麵"}},"lat":25.0839592,"lng":121.4740194},{"place":{"types":["brunch_restaurant","breakfast_restaurant","restaurant","food","point_of_interest","establishment"],"formattedAddress":"No. 43號, Zhongzheng Rd, Luzhou District, New Taipei City, Taiwan 247","websiteUri":"","displayName":{"languageCode":"zh-TW","text":"弘記豆漿店"}},"lat":25.0824234,"lng":121.470969},{"place":{"types":["cafeteria","japanese_restaurant","restaurant","food","point_of_interest","establishment"],"formattedAddress":"B1, No. 401號, Jixian Rd, Luzhou District, New Taipei City, Taiwan 247","websiteUri":"https://www.facebook.com/%E8%82%89%E5%A4%9A%E5%A4%9A%E7%81%AB%E9%8D%8B-%E8%98%86%E6%B4%B2%E9%9B%86%E8%B3%A2%E5%BA%97-102791498885986/?ref=page_internal","displayName":{"languageCode":"zh-TW","text":"肉多多火鍋-蘆洲集賢店"}},"lat":25.0817073,"lng":121.4802991},{"place":{"types":["breakfast_restaurant","restaurant","food","point_of_interest","establishment"],"formattedAddress":"247, Taiwan, New Taipei City, Luzhou District, 信義路290號","websiteUri":"","displayName":{"languageCode":"zh-TW","text":"信義豆漿小籠包"}},"lat":25.0874524,"lng":121.4777812},{"place":{"types":["restaurant","food","point_of_interest","establishment"],"formattedAddress":"No. 398-1, Jixian Rd, Luzhou District, New Taipei City, Taiwan 247","websiteUri":"https://m.facebook.com/lambhotpotallyoucaneat/","displayName":{"languageCode":"zh-TW","text":"御羊樓羊肉爐"}},"lat":25.0822595,"lng":121.4800907},{"place":{"types":["restaurant","food","point_of_interest","establishment"],"formattedAddress":"No. 81號, Zhongshan 1st Rd, Luzhou District, New Taipei City, Taiwan 247019","websiteUri":"https://www.facebook.com/%E5%91%B7%E5%91%BC%E9%9C%B8%E4%BD%B0%E5%85%83%E9%8D%8B%E7%89%A9-%E8%98%86%E6%B4%B2%E5%BA%97-102925471921791/","displayName":{"languageCode":"zh-TW","text":"呷呼霸佰元鍋物-蘆洲中山店"}},"lat":25.0812415,"lng":121.4773946}]