[{"place":{"types":["hotel","lodging","restaurant","food","point_of_interest","establishment"],"formattedAddress":"No. 160號, Section 3, Ren'ai Rd, Da’an District, Taipei City, Taiwan 106","websiteUri":"https://www.howard-hotels.com.tw/zh_TW/HotelBusiness/91","displayName":{"languageCode":"en","text":"The Howard Plaza Hotel Taipei"}},"lat":25.0374704,"lng":121.5433012},{"place":{"types":["buffet_restaurant","restaurant","food","point_of_interest","establishment"],"formattedAddress":"106, Taiwan, Taipei City, Da’an District, 敦化南路1段246號6樓","websiteUri":"https://www.hilai-foods.com/brand-content/1#branch-1","displayName":{"languageCode":"en","text":"Hi-Lai Harbour Dunhua Branch"}},"lat":25.040247,"lng":121.5483374},{"place":{"types":["breakfast_restaurant","brunch_restaurant","cafe","american_restaurant","food_store","restaurant","food","point_of_interest","store","establishment"],"formattedAddress":"No. 6-1, Lane 27, Section 4, Ren'ai Rd, Da’an District, Taipei City, Taiwan 106","websiteUri":"https://m.facebook.com/MOneCafe/","displayName":{"languageCode":"en","text":"M One Cafe Daan"}},"lat":25.0388702,"lng":121.545064},{"place":{"types":["chinese_restaurant","restaurant","food","point_of_interest","establishment"],"formattedAddress":"106, Taiwan, Taipei City, Da’an District, 敦化南路1段324號B1","websiteUri":"https://www.facebook.com/pages/%E9%A9%A5%E5%9C%92%E5%B7%9D%E8%8F%9C%E9%A4%90%E5%BB%B3/174569459253402","displayName":{"languageCode":"en","text":"Seasons Garden Restaurant"}},"lat":25.0353197,"lng":121.5484663},{"place":{"types":["restaurant","food","point_of_interest","establishment"],"formattedAddress":"No. 322號, Section 2, Bade Rd, Zhongshan District, Taipei City, Taiwan 104","websiteUri":"","displayName":{"languageCode":"en","text":"Lin Dong Fang Beef Noodles"}},"lat":25.0472361,"lng":121.5429923},{"place":{"types":["hotel","gym","garden","pub","bar","park","lodging","sports_activity_location","restaurant","food","point_of_interest","health","establishment"],"formattedAddress":"No. 25號, Lane 27, Section 4, Ren'ai Rd, Da’an District, Taipei City, Taiwan 106","websiteUri":"https://www.ihg.com/kimptonhotels/hotels/tw/zh/da-an-hotel-taipei/tpekm/hoteldetail?cm_mmc=GoogleMaps-_-KI-_-TW-_-TPEKM","displayName":{"languageCode":"en","text":"Kimpton Da An Hotel"}},"lat":25.040401,"lng":121.5455207},{"place":{"types":["chinese_restaurant","restaurant","food","point_of_interest","establishment"],"formattedAddress":"106, Taiwan, Taipei City, Da’an District, Section 3, Zhongxiao E Rd, 300號B2","websiteUri":"https://www.dintaifung.com.tw/","displayName":{"languageCode":"en","text":"Din Tai Fung Fuxing Restaurant"}},"lat":25.0408932,"lng":121.5432417},{"place":{"types":["restaurant","food","point_of_interest","establishment"],"formattedAddress":"106, Taiwan, Taipei City, Da’an District, 敦化南路1段164號","websiteUri":"https://page.line.me/721vmiip","displayName":{"languageCode":"en","text":"Taiwan Beef Noodles · Chicken Soup"}},"lat":25.043401,"lng":121.548439},{"place":{"types":["japanese_restaurant","restaurant","food","point_of_interest","establishment"],"formattedAddress":"106, Taiwan, Taipei City, Da’an District, Section 1, Da'an Rd, 135號B1","websiteUri":"https://lihi1.com/HnSd6","displayName":{"languageCode":"en","text":"Orange Shabu 1"}},"lat":25.0387397,"lng":121.5462668},{"place":{"types":["ramen_restaurant","japanese_restaurant","restaurant","food","point_of_interest","establishment"],"formattedAddress":"No. 228-6, Section 4, Ren'ai Rd, Da’an District, Taipei City, Taiwan 106","websiteUri":"https://www.facebook.com/sobashinncitrus/","displayName":{"languageCode":"en","text":"Soba Shinn Citrus"}},"lat":25.037354,"lng":121.552164},{"place":{"types":["chinese_restaurant","restaurant","food","point_of_interest","establishment"],"formattedAddress":"106, Taiwan, Taipei City, Da’an District, 敦化南路1段216號2樓","websiteUri":"https://www.citystar.com.tw/","displayName":{"languageCode":"en","text":"Citystar Restaurant"}},"lat":25.0412474,"lng":121.5484784},{"place":{"types":["chinese_restaurant","restaurant","food","point_of_interest","establishment"],"formattedAddress":"106, Taiwan, Taipei City, Da’an District, Section 4, Zhongxiao E Rd, 128號2樓","websiteUri":"https://www.facebook.com/pg/XIANGDUCK","displayName":{"languageCode":"en","text":"Xiang Duck Taipei Zhongxiao E. Branch"}},"lat":25.041307,"lng":121.54799},{"place":{"types":["italian_restaurant","food_store","restaurant","food","point_of_interest","store","establishment"],"formattedAddress":"No. 29-1, Section 1, Anhe Rd, Da’an District, Taipei City, Taiwan 106","websiteUri":"https://www.facebook.com/solopasta/","displayName":{"languageCode":"en","text":"Solo Pasta"}},"lat":25.0391157,"lng":121.5505933},{"place":{"types":["restaurant","food","point_of_interest","establishment"],"formattedAddress":"106, Taiwan, Taipei City, Da’an District, Section 4, Zhongxiao E Rd, 97號B1樓","websiteUri":"https://www.facebook.com/641509772952178/","displayName":{"languageCode":"en","text":"Ding Hao Zi Lin"}},"lat":25.0417877,"lng":121.5478902},{"place":{"types":["chinese_restaurant","meal_delivery","food_delivery","meal_takeaway","restaurant","food","point_of_interest","establishment"],"formattedAddress":"No. 24號, Lane 256, Section 3, Nanjing E Rd, Songshan District, Taipei City, Taiwan 10550","websiteUri":"http://liyuan-tangbao.blogspot.tw/","displayName":{"languageCode":"en","text":"Li Yuan"}},"lat":25.0503772,"lng":121.5447948},{"place":{"types":["brunch_restaurant","restaurant","food","point_of_interest","establishment"],"formattedAddress":"No. 7, Section 1, Anhe Rd, Da’an District, Taipei City, Taiwan 106","websiteUri":"https://www.instagram.com/brun.taipei/","displayName":{"languageCode":"en","text":"BRUN (Anhe)"}},"lat":25.039759,"lng":121.549743},{"place":{"types":["restaurant","food","point_of_interest","establishment"],"formattedAddress":"106, Taiwan, Taipei City, Da’an District, Section 4, Zhongxiao E Rd, 177號2樓","websiteUri":"https://www.tripodking.com.tw/","displayName":{"languageCode":"zh-TW","text":"鼎王麻辣鍋(台北忠孝店)"}},"lat":25.0417614,"lng":121.5506429},{"place":{"types":["brunch_restaurant","restaurant","food","point_of_interest","establishment"],"formattedAddress":"106, Taiwan, Taipei City, Da’an District, Section 4, Xinyi Rd, 103號2F","websiteUri":"https://www.instagram.com/brun.taipei/","displayName":{"languageCode":"en","text":"BRUN (Xinyi)"}},"lat":25.0334779,"lng":121.5478044},{"place":{"types":["japanese_restaurant","restaurant","food","point_of_interest","establishment"],"formattedAddress":"No. 34號, Lane 17, Section 4, Zhongxiao E Rd, Da’an District, Taipei City, Taiwan 106","websiteUri":"https://giafine100.com/","displayName":{"languageCode":"zh-TW","text":"加分100%浜中特選昆布鍋物 忠孝店"}},"lat":25.0434654,"lng":121.5443587},{"place":{"types":["korean_restaurant","restaurant","food","point_of_interest","establishment"],"formattedAddress":"No. 102號, Section 4, Civic Blvd, Da’an District, Taipei City, Taiwan 106","websiteUri":"https://www.facebook.com/profile.php?id=100086873505560","displayName":{"languageCode":"zh-TW","text":"本家BORNGA韓式燒肉 敦南店"}},"lat":25.044463,"lng":121.5499789}]