[{"place":{"types":["breakfast_restaurant","restaurant","food","point_of_interest","establishment"],"formattedAddress":"100, Taiwan, Taipei City, Zhongzheng District, Section 1, Zhongxiao E Rd, 108號2樓","websiteUri":"https://www.facebook.com/pages/%E8%8F%AF%E5%B1%B1%E5%B8%82%E5%A0%B4-%E9%98%9C%E6%9D%AD%E8%B1%86%E6%BC%BF/154088941341874","displayName":{"languageCode":"en","text":"Fuhang Soy Milk"}},"lat":25.043898,"lng":121.524815},{"place":{"types":["chinese_restaurant","restaurant","food","point_of_interest","establishment"],"formattedAddress":"No. 277, Section 2, Xinyi Rd, Zhongzheng District, Taipei City, Taiwan 100","websiteUri":"https://www.dintaifung.com.tw/","displayName":{"languageCode":"en","text":"Din Tai Fung Xinsheng Branch"}},"lat":25.0339087,"lng":121.5321385},{"place":{"types":["supermarket","deli","asian_grocery_store","confectionery","japanese_restaurant","grocery_store","food_store","store","restaurant","food","point_of_interest","establishment"],"formattedAddress":"100, Taiwan, Taipei City, Zhongzheng District, Section 1, Bade Rd, 55號B1","websiteUri":"https://www.dondondonki.com/tw/","displayName":{"languageCode":"en","text":"DON DON DONKI Zhongxiao Xinsheng Store"}},"lat":25.0445051,"lng":121.5324739},{"place":{"types":["chinese_restaurant","restaurant","food","point_of_interest","establishment"],"formattedAddress":"No. 6, Section 2, Jinan Rd, Zhongzheng District, Taipei City, Taiwan 100","websiteUri":"https://lin.ee/xOahtbx","displayName":{"languageCode":"en","text":"Takumi Dumplings"}},"lat":25.041298,"lng":121.5268228},{"place":{"types":["japanese_restaurant","restaurant","food","point_of_interest","establishment"],"formattedAddress":"No. 9號, Section 2, Zhongxiao E Rd, Zhongzheng District, Taipei City, Taiwan 100","websiteUri":"https://reurl.cc/b3x0Dv","displayName":{"languageCode":"en","text":"Hikiniku to Come (Taipei)"}},"lat":25.044028,"lng":121.527395},{"place":{"types":["restaurant","food","point_of_interest","establishment"],"formattedAddress":"No. 81號, ChangAn East Rd Section 2, Zhongshan District, Taipei City, Taiwan 10491","websiteUri":"","displayName":{"languageCode":"zh-TW","text":"萬客什鍋 長安東店"}},"lat":25.0485289,"lng":121.5344669},{"place":{"types":["american_restaurant","brunch_restaurant","coffee_shop","cafe","food_store","store","restaurant","food","point_of_interest","establishment"],"formattedAddress":"No. 108, Section 2, Ren'ai Rd, Zhongzheng District, Taipei City, Taiwan 100","websiteUri":"https://www.secondfloorcafe.com/","displayName":{"languageCode":"en","text":"SECOND FLOOR CAFE Renai"}},"lat":25.0379272,"lng":121.5324098},{"place":{"types":["sushi_restaurant","japanese_restaurant","restaurant","food","point_of_interest","establishment"],"formattedAddress":"10491, Taiwan, Taipei City, Zhongshan District, SongJiang Rd, 61-1號2樓","websiteUri":"http://www.sushiro.com.tw/","displayName":{"languageCode":"en","text":"SUSHIRO Songjiang Changan Branch"}},"lat":25.0485793,"lng":121.5333602},{"place":{"types":["seafood_restaurant","chinese_restaurant","restaurant","food","point_of_interest","establishment"],"formattedAddress":"No. 99, Section 1, Chang'an E Rd, Zhongshan District, Taipei City, Taiwan 10491","websiteUri":"https://www.facebook.com/pages/%E8%87%A8%E6%B4%8B%E6%B8%AF%E7%94%9F%E7%8C%9B%E6%B4%BB%E6%B5%B7%E9%AE%AE%E7%86%B1%E7%82%92/184155278283408","displayName":{"languageCode":"zh-TW","text":"臨洋港生猛活海鮮長安店"}},"lat":25.0482441,"lng":121.5290112},{"place":{"types":["hotel","chinese_restaurant","lodging","restaurant","food","point_of_interest","establishment"],"formattedAddress":"No. 63號, SongJiang Rd, Zhongshan District, Taipei City, Taiwan 10455","websiteUri":"https://www.evergreen-hotels.com/branch2/taipei","displayName":{"languageCode":"en","text":"Evergreen Laurel Hotel Taipei"}},"lat":25.0488076,"lng":121.5331945},{"place":{"types":["restaurant","deli","meal_delivery","food_delivery","chinese_restaurant","food_store","store","food","point_of_interest","establishment"],"formattedAddress":"No. 6之2號, Qingdao E Rd, Zhongzheng District, Taipei City, Taiwan 100","websiteUri":"https://www.moonmoonfood.com/","displayName":{"languageCode":"en","text":"Moon Moon Food Qingdao Branch"}},"lat":25.0430119,"lng":121.526237},{"place":{"types":["korean_restaurant","restaurant","food","point_of_interest","establishment"],"formattedAddress":"104, Taiwan, Taipei City, Zhongshan District, SongJiang Rd, 40號1樓","websiteUri":"https://www.facebook.com/broccolibeer/","displayName":{"languageCode":"en","text":"Broccolibeer"}},"lat":25.0476967,"lng":121.532745},{"place":{"types":["chinese_restaurant","restaurant","food","point_of_interest","establishment"],"formattedAddress":"No. 37號, Section 2, Jinan Rd, Zhongzheng District, Taipei City, Taiwan 100","websiteUri":"http://www.shanghaikitchen.com.tw/","displayName":{"languageCode":"en","text":"Shanghai Country Restaurant"}},"lat":25.0408708,"lng":121.5297456},{"place":{"types":["restaurant","food","point_of_interest","establishment"],"formattedAddress":"No. 90號, Section 1, Xinsheng N Rd, Zhongshan District, Taipei City, Taiwan 104","websiteUri":"https://giafine100.com/","displayName":{"languageCode":"zh-TW","text":"加分昆布鍋物-新生店"}},"lat":25.0477701,"lng":121.5296144},{"place":{"types":["chinese_restaurant","restaurant","food","point_of_interest","establishment"],"formattedAddress":"No. 112, ChangAn East Rd Section 2, Zhongshan District, Taipei City, Taiwan 10491","websiteUri":"https://www.oldsichuan.com.tw/official/home?utm_source=google\u0026utm_medium=google-store-Changan\u0026utm_campaign=Changan","displayName":{"languageCode":"en","text":"Old Sichuan"}},"lat":25.0481666,"lng":121.5357188},{"place":{"types":["seafood_restaurant","chinese_restaurant","restaurant","food","point_of_interest","establishment"],"formattedAddress":"No. 67號, Section 1, Chang'an E Rd, Zhongshan District, Taipei City, Taiwan 104","websiteUri":"https://www.facebook.com/sdw.taiwan/","displayName":{"languageCode":"zh-TW","text":"鮮定味生猛活海鮮"}},"lat":25.0486255,"lng":121.5276032},{"place":{"types":["thai_restaurant","restaurant","food","point_of_interest","establishment"],"formattedAddress":"No. 8號, SongJiang Rd, Zhongshan District, Taipei City, Taiwan 10491","websiteUri":"https://www.facebook.com/sawadicaintaipei","displayName":{"languageCode":"en","text":"Sawadica"}},"lat":25.0464834,"lng":121.5326824},{"place":{"types":["japanese_restaurant","restaurant","food","point_of_interest","establishment"],"formattedAddress":"No. 8號, Section 1, Jinshan S Rd, Zhongzheng District, Taipei City, Taiwan 100","websiteUri":"https://inline.app/booking/-Ll6KebqTaG9qa0eLrqY:inline-live-1/-NXV5pScQif96V_2MTAv?fbclid=IwAR19HmHXftFj1cpSA261VHQWE3QVxGXAQn_fV8rpceihdqVrZOtx__iUslM","displayName":{"languageCode":"zh-TW","text":"山上走走 日式燒肉台北華山店"}},"lat":25.0422951,"lng":121.5293369},{"place":{"types":["korean_restaurant","restaurant","food","point_of_interest","establishment"],"formattedAddress":"No. 32-1號, SongJiang Rd, Zhongshan District, Taipei City, Taiwan 10491","websiteUri":"","displayName":{"languageCode":"en","text":"Han Shi Dai-Korean BBQ"}},"lat":25.04734,"lng":121.5327403},{"place":{"types":["restaurant","food","point_of_interest","establishment"],"formattedAddress":"No. 94號, Section 2, Ren'ai Rd, Zhongzheng District, Taipei City, Taiwan 100","websiteUri":"http://www.mountain-n-seahouse.com/","displayName":{"languageCode":"en","text":"Mountain \u0026 Sea House Restaurant"}},"lat":25.038095,"lng":121.5313828}]