[{"place":{"types":["hotel","lodging","restaurant","point_of_interest","food","establishment"],"formattedAddress":"No. 160號, Section 3, Ren'ai Rd, Da’an District, Taipei City, Taiwan 106","websiteUri":"https://www.howard-hotels.com.tw/zh_TW/HotelBusiness/91","displayName":{"languageCode":"en","text":"The Howard Plaza Hotel Taipei"}},"lat":25.0374704,"lng":121.5433012},{"place":{"types":["buffet_restaurant","restaurant","point_of_interest","food","establishment"],"formattedAddress":"106, Taiwan, Taipei City, Da’an District, 敦化南路1段246號6樓","websiteUri":"https://www.hilai-foods.com/brand-content/1#branch-1","displayName":{"languageCode":"en","text":"Hi-Lai Harbour Dunhua Branch"}},"lat":25.040247,"lng":121.5483374},{"place":{"types":["restaurant","point_of_interest","food","establishment"],"formattedAddress":"No. 299號, Section 4, Zhongxiao E Rd, Da’an District, Taipei City, Taiwan 106","websiteUri":"https://m.facebook.com/PinDuSkewer/","displayName":{"languageCode":"zh-TW","text":"品都串燒攤 忠孝"}},"lat":25.041614,"lng":121.55532},{"place":{"types":["cafe","brunch_restaurant","breakfast_restaurant","american_restaurant","food_store","restaurant","point_of_interest","food","store","establishment"],"formattedAddress":"No. 6-1, Lane 27, Section 4, Ren'ai Rd, Da’an District, Taipei City, Taiwan 106","websiteUri":"https://m.facebook.com/MOneCafe/","displayName":{"languageCode":"en","text":"M One Cafe Daan"}},"lat":25.0388702,"lng":121.545064},{"place":{"types":["chinese_restaurant","restaurant","point_of_interest","food","establishment"],"formattedAddress":"106, Taiwan, Taipei City, Da’an District, 敦化南路1段324號B1","websiteUri":"https://www.facebook.com/pages/%E9%A9%A5%E5%9C%92%E5%B7%9D%E8%8F%9C%E9%A4%90%E5%BB%B3/174569459253402","displayName":{"languageCode":"en","text":"Seasons Garden Restaurant"}},"lat":25.0353197,"lng":121.5484663},{"place":{"types":["pizza_restaurant","restaurant","point_of_interest","food","establishment"],"formattedAddress":"No. 300, Guangfu S Rd, Da’an District, Taipei City, Taiwan 106","websiteUri":"https://www.facebook.com/Auntsupizza0316/","displayName":{"languageCode":"en","text":"Aunt Su's Pizza House"}},"lat":25.0391323,"lng":121.5574241},{"place":{"types":["hotel","garden","gym","pub","bar","sports_activity_location","park","lodging","health","restaurant","point_of_interest","food","establishment"],"formattedAddress":"No. 25號, Lane 27, Section 4, Ren'ai Rd, Da’an District, Taipei City, Taiwan 106","websiteUri":"https://www.ihg.com/kimptonhotels/hotels/tw/zh/da-an-hotel-taipei/tpekm/hoteldetail?cm_mmc=GoogleMaps-_-KI-_-TW-_-TPEKM","displayName":{"languageCode":"en","text":"Kimpton Da An Hotel"}},"lat":25.040401,"lng":121.5455207},{"place":{"types":["chinese_restaurant","restaurant","point_of_interest","food","establishment"],"formattedAddress":"106, Taiwan, Taipei City, Da’an District, Section 3, Zhongxiao E Rd, 300號B2","websiteUri":"https://www.dintaifung.com.tw/","displayName":{"languageCode":"en","text":"Din Tai Fung Fuxing Restaurant"}},"lat":25.0408932,"lng":121.5432417},{"place":{"types":["restaurant","point_of_interest","food","establishment"],"formattedAddress":"106, Taiwan, Taipei City, Da’an District, 敦化南路1段164號","websiteUri":"https://page.line.me/721vmiip","displayName":{"languageCode":"en","text":"Taiwan Beef Noodles · Chicken Soup"}},"lat":25.043401,"lng":121.548439},{"place":{"types":["restaurant","point_of_interest","food","establishment"],"formattedAddress":"No. 100, Guangfu S Rd, Da’an District, Taipei City, Taiwan 106","websiteUri":"https://www.facebook.com/chinhuajiao/","displayName":{"languageCode":"en","text":"Chin Hua Jiao Taipei Guangfu South Branch"}},"lat":25.0435585,"lng":121.5574379},{"place":{"types":["ramen_restaurant","japanese_restaurant","restaurant","point_of_interest","food","establishment"],"formattedAddress":"No. 228-6, Section 4, Ren'ai Rd, Da’an District, Taipei City, Taiwan 106","websiteUri":"https://www.facebook.com/sobashinncitrus/","displayName":{"languageCode":"en","text":"Soba Shinn Citrus"}},"lat":25.037354,"lng":121.552164},{"place":{"types":["hotel","lodging","restaurant","point_of_interest","food","establishment"],"formattedAddress":"10559, Taiwan, Taipei City, Songshan District, Section 3, Bade Rd, 76號1樓","websiteUri":"https://artreehotel.com.tw/","displayName":{"languageCode":"en","text":"arTree Hotel"}},"lat":25.0478728,"lng":121.5527439},{"place":{"types":["japanese_restaurant","restaurant","point_of_interest","food","establishment"],"formattedAddress":"106, Taiwan, Taipei City, Da’an District, Section 1, Da'an Rd, 135號B1","websiteUri":"https://lihi1.com/HnSd6","displayName":{"languageCode":"en","text":"Orange Shabu 1"}},"lat":25.0387397,"lng":121.5462668},{"place":{"types":["chinese_restaurant","restaurant","point_of_interest","food","establishment"],"formattedAddress":"106, Taiwan, Taipei City, Da’an District, 敦化南路1段216號2樓","websiteUri":"https://www.citystar.com.tw/","displayName":{"languageCode":"en","text":"Citystar Restaurant"}},"lat":25.0412474,"lng":121.5484784},{"place":{"types":["chinese_restaurant","restaurant","point_of_interest","food","establishment"],"formattedAddress":"106, Taiwan, Taipei City, Da’an District, Section 4, Zhongxiao E Rd, 128號2樓","websiteUri":"https://www.facebook.com/pg/XIANGDUCK","displayName":{"languageCode":"en","text":"Xiang Duck Taipei Zhongxiao E. Branch"}},"lat":25.041307,"lng":121.54799},{"place":{"types":["italian_restaurant","food_store","restaurant","point_of_interest","food","store","establishment"],"formattedAddress":"No. 29-1, Section 1, Anhe Rd, Da’an District, Taipei City, Taiwan 106","websiteUri":"https://www.facebook.com/solopasta/","displayName":{"languageCode":"en","text":"Solo Pasta"}},"lat":25.0391157,"lng":121.5505933},{"place":{"types":["restaurant","point_of_interest","food","establishment"],"formattedAddress":"106, Taiwan, Taipei City, Da’an District, Section 4, Zhongxiao E Rd, 97號B1樓","websiteUri":"https://www.facebook.com/641509772952178/","displayName":{"languageCode":"en","text":"Ding Hao Zi Lin"}},"lat":25.0417877,"lng":121.5478902},{"place":{"types":["restaurant","point_of_interest","food","establishment"],"formattedAddress":"No. 35號, Lane 131, Yanji St, Da’an District, Taipei City, Taiwan 106","websiteUri":"https://www.zunhongtw.com/","displayName":{"languageCode":"zh-TW","text":"嵩SUNG 台北大安"}},"lat":25.0430907,"lng":121.5557356},{"place":{"types":["asian_restaurant","chinese_restaurant","restaurant","point_of_interest","food","establishment"],"formattedAddress":"No. 2號, Lane 138, Yanji St, Da’an District, Taipei City, Taiwan 106","websiteUri":"https://www.qinshanshi.com/","displayName":{"languageCode":"en","text":"Qin Wei Guan"}},"lat":25.0399182,"lng":121.5546513},{"place":{"types":["brunch_restaurant","restaurant","point_of_interest","food","establishment"],"formattedAddress":"No. 7, Section 1, Anhe Rd, Da’an District, Taipei City, Taiwan 106","websiteUri":"https://www.instagram.com/brun.taipei/","displayName":{"languageCode":"en","text":"BRUN (Anhe)"}},"lat":25.039759,"lng":121.549743}]