[{"place":{"types":["chinese_restaurant","restaurant","food","point_of_interest","establishment"],"formattedAddress":"No. 23號, Lane 29, Huanhe Rd, Xindian District, New Taipei City, Taiwan 231","websiteUri":"https://www.facebook.com/Da.Chu.Shang.Cai/","displayName":{"languageCode":"zh-TW","text":"大廚上菜"}},"lat":24.9599238,"lng":121.5371737},{"place":{"types":["chinese_restaurant","restaurant","food","point_of_interest","establishment"],"formattedAddress":"No. 239號, Section 1, Beixin Rd, Xindian District, New Taipei City, Taiwan 231","websiteUri":"https://www.facebook.com/%E4%B8%83%E5%BC%B5%E7%B1%B3%E7%B2%89%E6%B9%AF-191691637510193/","displayName":{"languageCode":"zh-TW","text":"七張米粉湯"}},"lat":24.965976,"lng":121.540545},{"place":{"types":["ramen_restaurant","japanese_restaurant","restaurant","food","point_of_interest","establishment"],"formattedAddress":"No. 27號, Xindian Rd, Xindian District, New Taipei City, Taiwan 231","websiteUri":"https://www.facebook.com/uminekotaiwan","displayName":{"languageCode":"zh-TW","text":"海貓亭拉麵 うみねこ亭"}},"lat":24.95262,"lng":121.5400534},{"place":{"types":["restaurant","food","point_of_interest","establishment"],"formattedAddress":"231, Taiwan, New Taipei City, Xindian District, Section 1, Beixin Rd, 231號2樓","websiteUri":"https://www.facebook.com/fugurosukiyaki","displayName":{"languageCode":"en","text":"Fuguro Sukiyaki"}},"lat":24.9655183,"lng":121.5404682},{"place":{"types":["korean_restaurant","restaurant","food","point_of_interest","establishment"],"formattedAddress":"231, Taiwan, New Taipei City, Xindian District, Section 1, Beiyi Rd, 16號2樓","websiteUri":"https://www.facebook.com/share/12CNYq8TK64/?mibextid=LQQJ4d","displayName":{"languageCode":"zh-TW","text":"朴家村"}},"lat":24.9576128,"lng":121.5380191},{"place":{"types":["restaurant","food","point_of_interest","establishment"],"formattedAddress":"231, Taiwan, New Taipei City, Xindian District, 碧潭風景區東岸商店街B09號","websiteUri":"http://www.waterfront.com.tw/","displayName":{"languageCode":"zh-TW","text":"水灣餐廳Waterfront 碧潭店"}},"lat":24.9561884,"lng":121.5368213},{"place":{"types":["restaurant","food","point_of_interest","establishment"],"formattedAddress":"No. 68號, Guangming St, Xindian District, New Taipei City, Taiwan 231","websiteUri":"https://www.facebook.com/liuliannshop1","displayName":{"languageCode":"zh-TW","text":"劉漣麵 新店光明總店"}},"lat":24.9597998,"lng":121.5387651},{"place":{"types":["fast_food_restaurant","restaurant","food","point_of_interest","establishment"],"formattedAddress":"No. 1-1號, Guangming St, Xindian District, New Taipei City, Taiwan 231","websiteUri":"https://www.kfcclub.com.tw/","displayName":{"languageCode":"en","text":"KFC Xindian Guangming Restaurant"}},"lat":24.9590986,"lng":121.5381624},{"place":{"types":["fast_food_restaurant","meal_takeaway","restaurant","food","point_of_interest","establishment"],"formattedAddress":"231039, Taiwan, New Taipei City, Xindian District, Section 1, Beiyi Rd, 3號1樓","websiteUri":"https://www.33friedchicken.com.tw/stores.html","displayName":{"languageCode":"zh-TW","text":"三商炸雞 北宜店"}},"lat":24.9584364,"lng":121.5382284},{"place":{"types":["restaurant","food","point_of_interest","establishment"],"formattedAddress":"No. 196-1號, Section 1, Beiyi Rd, Xindian District, New Taipei City, Taiwan 231","websiteUri":"https://www.facebook.com/pages/%E6%96%B0%E5%BA%97%E5%8C%97%E5%AE%9C%E8%B7%AF-%E4%B8%8D%E4%B8%80%E7%BE%8A%E5%B0%8F%E7%BE%8A%E8%82%89/1625286794380506","displayName":{"languageCode":"zh-TW","text":"不一羊小羊肉"}},"lat":24.95279,"lng":121.543031},{"place":{"types":["restaurant","food","point_of_interest","establishment"],"formattedAddress":"No. 190-7號, Section 1, Beiyi Rd, Xindian District, New Taipei City, Taiwan 231","websiteUri":"https://www.facebook.com/pages/%E6%9D%B1%E6%82%85%E4%B8%80%E7%A2%97%E5%B0%8F%E8%82%A5%E7%BE%8A/593673867376990","displayName":{"languageCode":"en","text":"DongYue Lamb Restaurant"}},"lat":24.952708,"lng":121.542197},{"place":{"types":["restaurant","food","point_of_interest","establishment"],"formattedAddress":"No. 50號, Section 1, Ankang Rd, Xindian District, New Taipei City, Taiwan 231","websiteUri":"https://www.facebook.com/%E6%8B%BE%E6%9D%BE-1347242518751470/","displayName":{"languageCode":"zh-TW","text":"拾松"}},"lat":24.9611943,"lng":121.5303142},{"place":{"types":["chinese_restaurant","restaurant","food","point_of_interest","establishment"],"formattedAddress":"231, Taiwan, New Taipei City, Xindian District, Section 1, Beixin Rd, 107號1 樓","websiteUri":"http://www.fushun.tw/","displayName":{"languageCode":"zh-TW","text":"富順樓 北新店 ！近碧潭！"}},"lat":24.9624399,"lng":121.539003},{"place":{"types":["hotel","restaurant","food","lodging","point_of_interest","establishment"],"formattedAddress":"No. 8, Taiping Rd, Xindian District, New Taipei City, Taiwan 231","websiteUri":"http://www.beautifulhotel.com.tw/","displayName":{"languageCode":"zh-TW","text":"美麗春天大飯店 Beautiful Hotel"}},"lat":24.9577624,"lng":121.5343879},{"place":{"types":["restaurant","food","point_of_interest","establishment"],"formattedAddress":"No. 141號, Section 1, Zhongxing Rd, Xindian District, New Taipei City, Taiwan 231","websiteUri":"https://m.facebook.com/profile.php/?id=100093101768198","displayName":{"languageCode":"zh-TW","text":"宸軒園 粵菜 海鮮 （中興店）2/28連假正常營業"}},"lat":24.9638605,"lng":121.542082},{"place":{"types":["restaurant","food","point_of_interest","establishment"],"formattedAddress":"No. 113號, Guangming St, Xindian District, New Taipei City, Taiwan 231","websiteUri":"http://line.me/ti/p/@gov9023d","displayName":{"languageCode":"zh-TW","text":"葉來香50年古早味麵飯美食"}},"lat":24.9613991,"lng":121.5391396},{"place":{"types":["japanese_restaurant","restaurant","food","point_of_interest","establishment"],"formattedAddress":"231, Taiwan, New Taipei City, Xindian District, Section 1, Beiyi Rd, 3號2樓","websiteUri":"https://booking.menushop.tw/mold02","displayName":{"languageCode":"zh-TW","text":"燒肉アニキ-燒肉Aniki-新店碧潭店"}},"lat":24.9584283,"lng":121.5382292},{"place":{"types":["restaurant","pub","meal_takeaway","bar","japanese_restaurant","food","point_of_interest","establishment"],"formattedAddress":"No. 7號, Section 1, Beiyi Rd, Xindian District, New Taipei City, Taiwan 231","websiteUri":"https://inline.app/booking/-LaPGv120tJCLRpBuCWx:inline-live-2a466/-N1wNYZWy621OKrm2eYn","displayName":{"languageCode":"zh-TW","text":"渣男Taiwan Bistro《新店九渣》"}},"lat":24.9581862,"lng":121.5382583},{"place":{"types":["brunch_restaurant","restaurant","food_store","food","store","point_of_interest","establishment"],"formattedAddress":"No. 5號, Xindian Rd, Xindian District, New Taipei City, Taiwan 231","websiteUri":"https://shop.ichefpos.com/store/880cxkvf/reserve","displayName":{"languageCode":"zh-TW","text":"桑ㄛ咖啡 Sang Ou Cafe"}},"lat":24.952804,"lng":121.5406052},{"place":{"types":["restaurant","food","point_of_interest","establishment"],"formattedAddress":"231, Taiwan, New Taipei City, Xindian District, Section 1, Beixin Rd, 245號1樓","websiteUri":"https://www.jeffshotpot.com/","displayName":{"languageCode":"zh-TW","text":"姐 夫重慶串串鍋-總店-新店美食 新店串串 新店火鍋 新店鍋物 新店麻辣鍋 新店重慶火鍋"}},"lat":24.9660325,"lng":121.5405893}]