[{"place":{"types":["buffet_restaurant","cafeteria","restaurant","food","point_of_interest","establishment"],"formattedAddress":"111, Taiwan, Taipei City, Shilin District, 中山北路六段77號7樓","websiteUri":"https://www.hilai-foods.com/brand-content/1#branch-2","displayName":{"languageCode":"en","text":"Hi-Lai Harbour Tianmu Branch"}},"lat":25.1051833,"lng":121.5245452},{"place":{"types":["restaurant","food","point_of_interest","establishment"],"formattedAddress":"No. 80, Dexing E Rd, Shilin District, Taipei City, Taiwan 111","websiteUri":"","displayName":{"languageCode":"en","text":"Zhongcheng Beef Noodle Restaurant"}},"lat":25.107322,"lng":121.5275543},{"place":{"types":["chinese_restaurant","restaurant","food","point_of_interest","establishment"],"formattedAddress":"111, Taiwan, Taipei City, Shilin District, 中山北路六段77號B1","websiteUri":"https://www.dintaifung.com.tw/","displayName":{"languageCode":"en","text":"Din Tai Fung Tianmu Restaurant"}},"lat":25.105306,"lng":121.5245943},{"place":{"types":["dessert_shop","dessert_restaurant","confectionery","food_store","store","restaurant","food","point_of_interest","establishment"],"formattedAddress":"No. 8號, Lane 75, Section 2, Shipai Rd, Beitou District, Taipei City, Taiwan 112","websiteUri":"https://www.instagram.com/sgb_dessert_2005/","displayName":{"languageCode":"zh-TW","text":"水龜伯古早味"}},"lat":25.1169194,"lng":121.515813},{"place":{"types":["restaurant","food","point_of_interest","establishment"],"formattedAddress":"No. 100, Section 7, Chengde Rd, Beitou District, Taipei City, Taiwan 112","websiteUri":"https://www.facebook.com/profile.php?id=100069468690536","displayName":{"languageCode":"zh-TW","text":"滷三塊五花肉飯"}},"lat":25.1120052,"lng":121.5102914},{"place":{"types":["vietnamese_restaurant","deli","food_store","store","restaurant","food","point_of_interest","establishment"],"formattedAddress":"No. 45號, Dexing E Rd, Shilin District, Taipei City, Taiwan 111","websiteUri":"https://www.facebook.com/100063944714144/","displayName":{"languageCode":"zh-TW","text":"越富越南法國麵包"}},"lat":25.1071518,"lng":121.5265242},{"place":{"types":["deli","food_store","store","restaurant","food","point_of_interest","establishment"],"formattedAddress":"No. 5號, Lane 40, Yuminyi Rd, Beitou District, Taipei City, Taiwan 112","websiteUri":"https://www.24h.idv.tw/","displayName":{"languageCode":"zh-TW","text":"阿財鍋貼餃子專賣店"}},"lat":25.1163453,"lng":121.5179455},{"place":{"types":["restaurant","food","point_of_interest","establishment"],"formattedAddress":"No. 15號, Lane 40, Yuminyi Rd, Beitou District, Taipei City, Taiwan 112","websiteUri":"","displayName":{"languageCode":"zh-TW","text":"彈芽麵"}},"lat":25.1160077,"lng":121.5179049},{"place":{"types":["chinese_restaurant","restaurant","food","point_of_interest","establishment"],"formattedAddress":"No. 114號, Fuhua Rd, Shilin District, Taipei City, Taiwan 111","websiteUri":"https://www.gathering.tw/gathering.html","displayName":{"languageCode":"en","text":"Denwell Gathering"}},"lat":25.1022777,"lng":121.5230389},{"place":{"types":["vegetarian_restaurant","italian_restaurant","restaurant","food","point_of_interest","establishment"],"formattedAddress":"No. 48號, Dexing W Rd, Shilin District, Taipei City, Taiwan 111","websiteUri":"https://miacucinagroup.com/menu/","displayName":{"languageCode":"en","text":"Miacucina Tianmu"}},"lat":25.1052399,"lng":121.5229022},{"place":{"types":["liquor_store","brunch_restaurant","american_restaurant","japanese_restaurant","food_store","store","restaurant","food","point_of_interest","establishment"],"formattedAddress":"No. 146, Fuhua Rd, Shilin District, Taipei City, Taiwan 111","websiteUri":"https://www.facebook.com/Marcus.warehouse1/","displayName":{"languageCode":"en","text":"Marcus"}},"lat":25.1033737,"lng":121.5227642},{"place":{"types":["fast_food_restaurant","hamburger_restaurant","brunch_restaurant","american_restaurant","restaurant","food","point_of_interest","establishment"],"formattedAddress":"No. 126號, Section 2, Shipai Rd, Beitou District, Taipei City, Taiwan 112","websiteUri":"https://www.mcdonalds.com/tw/zh-tw.html","displayName":{"languageCode":"en","text":"McDonald's"}},"lat":25.1178786,"lng":121.5173817},{"place":{"types":["vegetarian_restaurant","restaurant","food","point_of_interest","establishment"],"formattedAddress":"No. 112號, Lane 166, Section 1, Shipai Rd, Beitou District, Taipei City, Taiwan 112","websiteUri":"","displayName":{"languageCode":"zh-TW","text":"全家福素食"}},"lat":25.112849,"lng":121.5147274},{"place":{"types":["chinese_restaurant","restaurant","food","point_of_interest","establishment"],"formattedAddress":"No. 25號, Dexing W Rd, Shilin District, Taipei City, Taiwan 111","websiteUri":"https://www.facebook.com/%E6%B4%AA%E6%A8%93%E5%B0%8F%E9%A4%A8-229402743742039/","displayName":{"languageCode":"en","text":"Hong Lou"}},"lat":25.1061235,"lng":121.5238496},{"place":{"types":["dessert_restaurant","restaurant","food","point_of_interest","establishment"],"formattedAddress":"112, Taiwan, Taipei City, Beitou District, Yumin 1st Rd, 49號1樓","websiteUri":"https://www.facebook.com/%E8%B1%86%E8%8A%B1%E6%9E%97-122004267887538/","displayName":{"languageCode":"zh-TW","text":"豆花林"}},"lat":25.1166367,"lng":121.5179776},{"place":{"types":["restaurant","food","point_of_interest","establishment"],"formattedAddress":"111, Taiwan, Taipei City, Shilin District, Keqiang Rd, 30號1樓","websiteUri":"https://inline.app/booking/-Ms-c35Cl4tkU6gcEp95:inline-live-2/-Ms-c3J2V-OLEqlouoG3?language=zh-tw","displayName":{"languageCode":"zh-TW","text":"甲蟲秘境(親子友善餐廳)"}},"lat":25.1091372,"lng":121.5232939},{"place":{"types":["japanese_restaurant","restaurant","food","point_of_interest","establishment"],"formattedAddress":"No. 101, Dexing E Rd, Shilin District, Taipei City, Taiwan 111","websiteUri":"","displayName":{"languageCode":"en","text":"Ginza Japanese Restaurant"}},"lat":25.1077062,"lng":121.5280299},{"place":{"types":["dessert_restaurant","vegetarian_restaurant","chinese_restaurant","restaurant","food","point_of_interest","establishment"],"formattedAddress":"112, Taiwan, Taipei City, Beitou District, Mingde Rd, 365號2樓","websiteUri":"http://suhung.com.tw/","displayName":{"languageCode":"zh-TW","text":"蘇杭365"}},"lat":25.1185042,"lng":121.5210206},{"place":{"types":["restaurant","food","point_of_interest","establishment"],"formattedAddress":"No. 160號, Section 1, Shipai Rd, Beitou District, Taipei City, Taiwan 112","websiteUri":"https://www.jhujian.com.tw/","displayName":{"languageCode":"zh-TW","text":"築間幸福鍋物 北投石牌店"}},"lat":25.1143454,"lng":121.5133358},{"place":{"types":["ramen_restaurant","japanese_restaurant","restaurant","food","point_of_interest","establishment"],"formattedAddress":"11158, Taiwan, Taipei City, Shilin District, Fuhua Rd, 140號1F","websiteUri":"https://www.facebook.com/%E9%9A%B1%E5%AE%B6%E6%8B%89%E9%BA%B5%E8%8A%9D%E5%B1%B1%E5%BA%97-114471790477161","displayName":{"languageCode":"zh-TW","text":"隱家拉麵 芝山店"}},"lat":25.1032387,"lng":121.5227881}]