[{"place":{"types":["chinese_restaurant","restaurant","food","point_of_interest","establishment"],"formattedAddress":"No. 288號, Section 6, Minquan E Rd, Neihu District, Taipei City, Taiwan 114","websiteUri":"https://www.facebook.com/%E6%9D%B1%E5%BC%95%E5%BF%AB%E5%88%80%E6%89%8B-%E9%BA%B5%E9%A3%9F%E9%A4%A8-102223599090131/","displayName":{"languageCode":"zh-TW","text":"東引快刀手 內湖店 -(人氣排隊美食、必吃午 晚餐 宵夜 滷味、平價麵館)"}},"lat":25.0723391,"lng":121.6053057},{"place":{"types":["chinese_restaurant","restaurant","food","point_of_interest","establishment"],"formattedAddress":"No. 3號, Alley 7, Lane 106, Donghu Rd, Neihu District, Taipei City, Taiwan 114","websiteUri":"","displayName":{"languageCode":"zh-TW","text":"喜相逢麵館"}},"lat":25.0680702,"lng":121.6149578},{"place":{"types":["ramen_restaurant","japanese_restaurant","restaurant","food","point_of_interest","establishment"],"formattedAddress":"114, Taiwan, Taipei City, Neihu District, Alley 11, Lane 189, Section 3, Kangning Rd, 12號1樓","websiteUri":"https://www.facebook.com/shingaramen","displayName":{"languageCode":"zh-TW","text":"麵屋昕家"}},"lat":25.0706382,"lng":121.6124219},{"place":{"types":["japanese_restaurant","restaurant","food","point_of_interest","establishment"],"formattedAddress":"115, Taiwan, Taipei City, Nangang District, Jingmao 2nd Rd, 188-1號2樓","websiteUri":"https://syabuyo.com.tw/index.php","displayName":{"languageCode":"en","text":"Syabu-yo Nangang CTBC Financial Park"}},"lat":25.0588739,"lng":121.614672},{"place":{"types":["restaurant","food","point_of_interest","establishment"],"formattedAddress":"No. 2, Lane 119, Donghu Rd, Neihu District, Taipei City, Taiwan 114","websiteUri":"https://www.wangdumpling.com.tw/","displayName":{"languageCode":"en","text":"Wang's Dumpling Restaurant"}},"lat":25.0687038,"lng":121.6166181},{"place":{"types":["fast_food_restaurant","hamburger_restaurant","brunch_restaurant","american_restaurant","restaurant","food","point_of_interest","establishment"],"formattedAddress":"115, Taiwan, Taipei City, Nangang District, Jingmao 2nd Rd, 188-1號1 樓","websiteUri":"https://www.mcdonalds.com/tw/zh-tw.html","displayName":{"languageCode":"en","text":"McDonald's CTBC Financial Park"}},"lat":25.058845,"lng":121.61526},{"place":{"types":["italian_restaurant","restaurant","food","point_of_interest","establishment"],"formattedAddress":"No. 5號, Lane 33, Donghu Rd, Neihu District, Taipei City, Taiwan 114","websiteUri":"https://www.facebook.com/hhotpasta/","displayName":{"languageCode":"zh-TW","text":"夯麵坊(東湖店)"}},"lat":25.0694088,"lng":121.6135373},{"place":{"types":["italian_restaurant","food_store","restaurant","food","point_of_interest","store","establishment"],"formattedAddress":"No. 36號, Lane 296, Section 6, Minquan E Rd, Neihu District, Taipei City, Taiwan 114","websiteUri":"https://sites.google.com/moonday.com.tw/www","displayName":{"languageCode":"zh-TW","text":"沐對 MoonDay 義式小廚房"}},"lat":25.071771,"lng":121.607105},{"place":{"types":["ramen_restaurant","japanese_restaurant","restaurant","food","point_of_interest","establishment"],"formattedAddress":"114, Taiwan, Taipei City, Neihu District, Lane 217, Section 3, Kangning Rd, 1號1樓","websiteUri":"https://www.instagram.com/thesaltramen/","displayName":{"languageCode":"zh-TW","text":"長生塩人 東湖"}},"lat":25.0685033,"lng":121.6122641},{"place":{"types":["thai_restaurant","restaurant","food","point_of_interest","establishment"],"formattedAddress":"No. 469, Section 6, Minquan E Rd, Neihu District, Taipei City, Taiwan 114","websiteUri":"http://www.jollys.tw/","displayName":{"languageCode":"en","text":"Jolly Brewery + Restaurant"}},"lat":25.0724122,"lng":121.6048035},{"place":{"types":["sushi_restaurant","japanese_restaurant","restaurant","food","point_of_interest","establishment"],"formattedAddress":"No. 18, Section 3, Kangning Rd, Neihu District, Taipei City, Taiwan 114","websiteUri":"https://www.sushiexpress.com.tw/sushi-express/index","displayName":{"languageCode":"en","text":"Sushi Express Kangning Restaurant"}},"lat":25.0724339,"lng":121.6073259},{"place":{"types":["chinese_restaurant","restaurant","food","point_of_interest","establishment"],"formattedAddress":"115, Taiwan, Taipei City, Nangang District, Jingmao 2nd Rd, 188號2樓","websiteUri":"http://www.siangsian.com.tw/","displayName":{"languageCode":"zh-TW","text":"享鮮餐廳南港分店"}},"lat":25.0588739,"lng":121.614672},{"place":{"types":["tea_house","restaurant","food","point_of_interest","establishment"],"formattedAddress":"115, Taiwan, Taipei City, Nangang District, Jingmao 2nd Rd, 188號2樓（B棟","websiteUri":"http://chunshuitang.com.tw/","displayName":{"languageCode":"en","text":"Chun Shui Tang Nangang Branch"}},"lat":25.0592534,"lng":121.6151831},{"place":{"types":["restaurant","food","point_of_interest","establishment"],"formattedAddress":"No. 286號, Section 6, Minquan E Rd, Neihu District, Taipei City, Taiwan 114","websiteUri":"https://www.sichuanlongfu.com.tw/","displayName":{"languageCode":"en","text":"四川龍府放感情"}},"lat":25.0723504,"lng":121.6052596},{"place":{"types":["coffee_shop","cafe","food_store","restaurant","food","point_of_interest","store","establishment"],"formattedAddress":"No. 561號, Chongyang Rd, Nangang District, Taipei City, Taiwan 115","websiteUri":"https://www.tumazcoffee.com/","displayName":{"languageCode":"zh-TW","text":"TUMAZ 黑熊咖啡『藝伎專家』"}},"lat":25.0632694,"lng":121.6144262},{"place":{"types":["restaurant","food","point_of_interest","establishment"],"formattedAddress":"114, Taiwan, Taipei City, Neihu District, Alley 17, Lane 72, Kangle St, 2號之一","websiteUri":"","displayName":{"languageCode":"zh-TW","text":"粥善粥品（廣東粥）"}},"lat":25.0697437,"lng":121.6177979},{"place":{"types":["japanese_restaurant","restaurant","food","point_of_interest","establishment"],"formattedAddress":"115, Taiwan, Taipei City, Nangang District, Yuanqu St, 20號1樓","websiteUri":"https://sites.google.com/view/taoshan/","displayName":{"languageCode":"en","text":"Tao Japanese meal"}},"lat":25.0591824,"lng":121.6132061},{"place":{"types":["italian_restaurant","restaurant","food","point_of_interest","establishment"],"formattedAddress":"No. 56號, Lane 296, Section 6, Minquan E Rd, Neihu District, Taipei City, Taiwan 114","websiteUri":"http://www.facebook.com/Atlas-Brunch-Pasta-%E4%BA%9E%E6%96%AF%E7%BE%A9%E5%A4%A7%E5%88%A9%E9%BA%B5-1975410049215534/","displayName":{"languageCode":"zh-TW","text":"Atlas Brunch \u0026 Pasta 亞斯義大利麵"}},"lat":25.0708248,"lng":121.6081639},{"place":{"types":["steak_house","restaurant","food","point_of_interest","establishment"],"formattedAddress":"No. 30, Lane 119, Donghu Rd, Neihu District, Taipei City, Taiwan 114","websiteUri":"https://www.facebook.com/52jiajia.dh/","displayName":{"languageCode":"en","text":"Jia Jia Steak House"}},"lat":25.0691798,"lng":121.6169441},{"place":{"types":["japanese_restaurant","restaurant","food","point_of_interest","establishment"],"formattedAddress":"114, Taiwan, Taipei City, Neihu District, Section 3, Kangning Rd, 72號1F","websiteUri":"http://www.sushiexpress.com.tw/","displayName":{"languageCode":"en","text":"Teishoku 8 Kangning Branch"}},"lat":25.0699943,"lng":121.6114389}]