[{"place":{"types":["seafood_restaurant","chinese_restaurant","restaurant","food","point_of_interest","establishment"],"formattedAddress":"No. 656, Section 4, Bade Rd, Songshan District, Taipei City, Taiwan 105","websiteUri":"http://www.taipei-seafood.com.tw/","displayName":{"languageCode":"en","text":"Shin Tung Nan Seafood"}},"lat":25.0498402,"lng":121.5754394},{"place":{"types":["chinese_restaurant","restaurant","food","point_of_interest","establishment"],"formattedAddress":"No. 58號, Section 1, Jiuzong Rd, Neihu District, Taipei City, Taiwan 114","websiteUri":"http://www.dragon.taipei/","displayName":{"languageCode":"en","text":"Dragon Restaurant Neihu Branch"}},"lat":25.0584634,"lng":121.5800717},{"place":{"types":["restaurant","buffet_restaurant","middle_eastern_restaurant","food","point_of_interest","establishment"],"formattedAddress":"105, Taiwan, Taipei City, Songshan District, Section 4, Bade Rd, 618號2F","websiteUri":"https://www.facebook.com/1001NightsKitchen/","displayName":{"languageCode":"en","text":"1001 Nights Kitchen Taipei"}},"lat":25.049785,"lng":121.573708},{"place":{"types":["chinese_restaurant","restaurant","food","point_of_interest","establishment"],"formattedAddress":"No. 512-1號, Section 4, Bade Rd, Songshan District, Taipei City, Taiwan 105047","websiteUri":"https://inline.app/booking/chinglou","displayName":{"languageCode":"zh-TW","text":"青樓中式餐酒館"}},"lat":25.0496774,"lng":121.5708898},{"place":{"types":["korean_restaurant","restaurant","food","point_of_interest","establishment"],"formattedAddress":"No. 699號, Section 5 of Zhongxiao East RoadSection 5 of Zhongxiao E Rd, Xinyi District, Taipei City, Taiwan 110","websiteUri":"https://www.facebook.com/IgokBBQ","displayName":{"languageCode":"zh-TW","text":"梨谷 韓式鐵板炭火烤肉"}},"lat":25.0423518,"lng":121.580102},{"place":{"types":["japanese_restaurant","restaurant","food","point_of_interest","establishment"],"formattedAddress":"110, Taiwan, Taipei City, Xinyi District, Section 5 of Zhongxiao East RoadSection 5 of Zhongxiao E Rd, 497號2樓","websiteUri":"https://www.jhujian.com.tw/yakiniku_smile/tw","displayName":{"languageCode":"en","text":"Yakiniku Smile Taipei Zhongxiao Branch"}},"lat":25.041398,"lng":121.578408},{"place":{"types":["deli","restaurant","food_store","food","store","point_of_interest","establishment"],"formattedAddress":"No. 399之2號, Section 5, Nanjing E Rd, Songshan District, Taipei City, Taiwan 105","websiteUri":"https://www.facebook.com/%E5%8F%B8%E6%A9%9F%E4%BF%B1%E6%A8%82%E9%83%A8%E6%BB%B7%E8%82%89%E9%A3%AF-244373062294321/","displayName":{"languageCode":"en","text":"Drivers' Club"}},"lat":25.0513449,"lng":121.5581366},{"place":{"types":["japanese_restaurant","restaurant","food","point_of_interest","establishment"],"formattedAddress":"115, Taiwan, Taipei City, Nangang District, 永吉路542號","websiteUri":"https://chaorau.com/ui/index.html","displayName":{"languageCode":"en","text":"Chaorau Sukiyaki"}},"lat":25.0451399,"lng":121.581499},{"place":{"types":["dessert_restaurant","restaurant","food","point_of_interest","establishment"],"formattedAddress":"No. 178號, Raohe St, Songshan District, Taipei City, Taiwan 105","websiteUri":"http://www.facebook.com/Ice.Fire.Dumpling.Taichung.Tangyuan.Sweet/","displayName":{"languageCode":"en","text":"Yu Pin Yuan Iced and Hot Tangyuan - Raohe Branch"}},"lat":25.0508481,"lng":121.5767118},{"place":{"types":["fast_food_restaurant","hamburger_restaurant","brunch_restaurant","american_restaurant","restaurant","food","point_of_interest","establishment"],"formattedAddress":"110, Taiwan, Taipei City, Xinyi District, Section 5 of Zhongxiao East RoadSection 5 of Zhongxiao E Rd, 522號1 樓","websiteUri":"https://www.mcdonalds.com/tw/zh-tw.html","displayName":{"languageCode":"en","text":"McDonald's Zhongxiao 4th Branch"}},"lat":25.0412666,"lng":121.5791984},{"place":{"types":["restaurant","food","point_of_interest","establishment"],"formattedAddress":"No. 63號, Baoqing St, Songshan District, Taipei City, Taiwan 105","websiteUri":"","displayName":{"languageCode":"zh-TW","text":"新娘子麵店小吃（寶清店）"}},"lat":25.0516331,"lng":121.5683932},{"place":{"types":["restaurant","food","point_of_interest","establishment"],"formattedAddress":"No. 789號, Section 5 of Zhongxiao East RoadSection 5 of Zhongxiao E Rd, Xinyi District, Taipei City, Taiwan 110","websiteUri":"https://www.12hotpot.com.tw/","displayName":{"languageCode":"en","text":"12 Hotpot Taipei MRT Houshanpi Station Branch"}},"lat":25.044011,"lng":121.5815179},{"place":{"types":["department_store","shopping_mall","restaurant","food","store","point_of_interest","establishment"],"formattedAddress":"No. 11號, Songshan Rd, Xinyi District, Taipei City, Taiwan 110","websiteUri":"http://www.citylink.tw/songshan/","displayName":{"languageCode":"en","text":"CITYLINK Songshan Station Store I"}},"lat":25.0492057,"lng":121.5783207},{"place":{"types":["japanese_restaurant","restaurant","food","point_of_interest","establishment"],"formattedAddress":"No. 135號, Section 6, Civic Blvd, Songshan District, Taipei City, Taiwan 105057","websiteUri":"http://www.meatbutler.com.tw/","displayName":{"languageCode":"en","text":"Meat Butler Taipei Songshan"}},"lat":25.0496473,"lng":121.5792427},{"place":{"types":["restaurant","food","point_of_interest","establishment"],"formattedAddress":"No. 318號, Songhe St, Nangang District, Taipei City, Taiwan 115","websiteUri":"http://brickkiln.tw/","displayName":{"languageCode":"zh-TW","text":"磚窯古早料理南港創始店"}},"lat":25.0529135,"lng":121.5835215},{"place":{"types":["restaurant","deli","food_store","food","store","point_of_interest","establishment"],"formattedAddress":"No. 152, Songshan Rd, Xinyi District, Taipei City, Taiwan 110","websiteUri":"https://www.facebook.com/lobahpng/","displayName":{"languageCode":"en","text":"Lo Bah Png"}},"lat":25.046729,"lng":121.577533},{"place":{"types":["korean_restaurant","restaurant","food","point_of_interest","establishment"],"formattedAddress":"No. 154, Yucheng St, Nangang District, Taipei City, Taiwan 115","websiteUri":"https://www.facebook.com/pages/%E6%B0%B8%E5%90%89%E6%B6%BC%E9%BA%B5/464176603615921","displayName":{"languageCode":"en","text":"Yongji Cold Noodle"}},"lat":25.0450358,"lng":121.5837982},{"place":{"types":["dessert_shop","confectionery","restaurant","food_store","food","store","point_of_interest","establishment"],"formattedAddress":"110, Taiwan, Taipei City, Xinyi District, Hulin St, 119之17號1樓","websiteUri":"http://www.huinyeouwaffle.com/","displayName":{"languageCode":"zh-TW","text":"白狐院華夫餅 흰여우와플"}},"lat":25.0411557,"lng":121.5770402},{"place":{"types":["chinese_restaurant","restaurant","food","point_of_interest","establishment"],"formattedAddress":"No. 497號, Section 5 of Zhongxiao East RoadSection 5 of Zhongxiao E Rd, Xinyi District, Taipei City, Taiwan 110","websiteUri":"https://www.jhujian.com.tw/","displayName":{"languageCode":"zh-TW","text":"築間酸菜魚火鍋 台北忠孝店"}},"lat":25.0413427,"lng":121.5784625},{"place":{"types":["asian_restaurant","chinese_restaurant","seafood_restaurant","restaurant","food","point_of_interest","establishment"],"formattedAddress":"No. 4號, Zhongpo N Rd, Nangang District, Taipei City, Taiwan 115","websiteUri":"https://www.facebook.com/%E5%B8%B8%E6%97%BA%E7%86%B1%E7%82%92%E5%BA%97-106281101754420","displayName":{"languageCode":"zh-TW","text":"常旺海鮮熱炒"}},"lat":25.044578,"lng":121.581759}]