[{"place":{"types":["asian_restaurant","chinese_restaurant","restaurant","food","point_of_interest","establishment"],"formattedAddress":"No. 34之1號, Shuangcheng St, Zhongshan District, Taipei City, Taiwan 10491","websiteUri":"https://www.shinyeh.com.tw/content/zh/brand/Index.aspx?BrandId=1","displayName":{"languageCode":"en","text":"Shin Yeh Taiwanese Cuisine Main Restaurant"}},"lat":25.063034,"lng":121.5244775},{"place":{"types":["chinese_restaurant","restaurant","food","point_of_interest","establishment"],"formattedAddress":"No. 123號, Jinzhou St, Zhongshan District, Taipei City, Taiwan 104","websiteUri":"","displayName":{"languageCode":"en","text":"Tseng Family Soy Milk"}},"lat":25.060508,"lng":121.5288262},{"place":{"types":["chinese_restaurant","restaurant","food","point_of_interest","establishment"],"formattedAddress":"No. 55號, Changchun Rd, Zhongshan District, Taipei City, Taiwan 10491","websiteUri":"https://www.facebook.com/%E9%9B%9E%E5%AE%B6%E8%8E%8A-279425032095/","displayName":{"languageCode":"en","text":"Chi Chia Chuang (Changchun Road)"}},"lat":25.0550418,"lng":121.5264221},{"place":{"types":["hotel","bar","american_restaurant","restaurant","food","lodging","point_of_interest","establishment"],"formattedAddress":"No. 57-1號, Section 2, Zhongshan N Rd, Zhongshan District, Taipei City, Taiwan 10412","websiteUri":"https://www.amba-hotels.com/en/zhongshan/","displayName":{"languageCode":"en","text":"amba Taipei Zhongshan 台北中山意舍酒店"}},"lat":25.0557045,"lng":121.5230059},{"place":{"types":["deli","restaurant","food_store","food","store","point_of_interest","establishment"],"formattedAddress":"No. 28號, Lane 183, Section 2, Zhongshan N Rd, Zhongshan District, Taipei City, Taiwan 104","websiteUri":"https://www.instagram.com/huang_ji_?igsh=MWZmd2F2YXFlY3NkZg==","displayName":{"languageCode":"en","text":"Huang Ji Braised Pork"}},"lat":25.0636732,"lng":121.5241737},{"place":{"types":["seafood_restaurant","restaurant","food","point_of_interest","establishment"],"formattedAddress":"No. 59, Section 3, Zhongshan N Rd, Zhongshan District, Taipei City, Taiwan 104","websiteUri":"http://www.hpw.com.tw/","displayName":{"languageCode":"en","text":"Hai Bawang Restaurant"}},"lat":25.0687067,"lng":121.5232921},{"place":{"types":["chinese_restaurant","seafood_restaurant","japanese_restaurant","restaurant","food","point_of_interest","establishment"],"formattedAddress":"No. 52號, Section 1, Minsheng E Rd, Zhongshan District, Taipei City, Taiwan 104011","websiteUri":"http://www.gandou.com.tw/","displayName":{"languageCode":"en","text":"Gandou Zhongshan Branch"}},"lat":25.0579236,"lng":121.5248839},{"place":{"types":["restaurant","food","point_of_interest","establishment"],"formattedAddress":"No. 36之1號, Section 2, Zhongshan N Rd, Zhongshan District, Taipei City, Taiwan 104","websiteUri":"https://www.wulao.com.tw/","displayName":{"languageCode":"en","text":"Wulao Hotpot Taipei Zhongshan Branch"}},"lat":25.0526041,"lng":121.5226127},{"place":{"types":["french_restaurant","japanese_restaurant","restaurant","food","point_of_interest","establishment"],"formattedAddress":"No. 44號, Section 2, Zhongshan N Rd, Zhongshan District, Taipei City, Taiwan 10491","websiteUri":"http://www.chamonix.com.tw/","displayName":{"languageCode":"en","text":"CHAMONIX Taipei Zhongshan North Branch"}},"lat":25.0551969,"lng":121.5223734},{"place":{"types":["fast_food_restaurant","hamburger_restaurant","brunch_restaurant","american_restaurant","restaurant","food","point_of_interest","establishment"],"formattedAddress":"104, Taiwan, Taipei City, Zhongshan District, Linsen N Rd, 413號1樓","websiteUri":"https://www.mcdonalds.com/tw/zh-tw.html","displayName":{"languageCode":"en","text":"McDonald's Linsen 3rd"}},"lat":25.059864,"lng":121.525773},{"place":{"types":["hotel","buffet_restaurant","restaurant","food","lodging","point_of_interest","establishment"],"formattedAddress":"103, Taiwan, Taipei City, Datong District, Section 3, Chengde Rd, 49號捷運 : 淡水線(紅)/中蘆線(橘民權西路站1號出口(有電扶梯)：步行約５分鐘即可到達","websiteUri":"https://www.santoshotel.com/","displayName":{"languageCode":"en","text":"Santos Hotel"}},"lat":25.0628632,"lng":121.5197213},{"place":{"types":["restaurant","food","point_of_interest","establishment"],"formattedAddress":"No. 14號, Jinzhou St, Zhongshan District, Taipei City, Taiwan 104","websiteUri":"https://instagram.com/jitang_rong","displayName":{"languageCode":"zh-TW","text":"雞湯榮麵食館"}},"lat":25.0602382,"lng":121.5238835},{"place":{"types":["dessert_shop","dessert_restaurant","confectionery","restaurant","food_store","food","store","point_of_interest","establishment"],"formattedAddress":"No. 49號, Ningxia Rd, Datong District, Taipei City, Taiwan 103","websiteUri":"","displayName":{"languageCode":"en","text":"Beans Village"}},"lat":25.057382,"lng":121.5155865},{"place":{"types":["coffee_shop","cafe","japanese_restaurant","restaurant","food_store","food","store","point_of_interest","establishment"],"formattedAddress":"No. 4號, Lane 8, Chifeng St, Datong District, Taipei City, Taiwan 103","websiteUri":"https://wakuwaku-burger-pasta.tw/","displayName":{"languageCode":"en","text":"waku waku pasta Chifeng"}},"lat":25.0538231,"lng":121.5191253},{"place":{"types":["sushi_restaurant","japanese_restaurant","restaurant","food","point_of_interest","establishment"],"formattedAddress":"103022, Taiwan, Taipei City, Datong District, Nanjing W Rd, 57號2樓","websiteUri":"https://www.kurasushi.tw/","displayName":{"languageCode":"en","text":"KURA SUSHI Zhongshan Nanxi Branch"}},"lat":25.0531069,"lng":121.5193384},{"place":{"types":["chinese_restaurant","restaurant","food","point_of_interest","establishment"],"formattedAddress":"104, Taiwan, Taipei City, Zhongshan District, Section 2, Zhongshan N Rd, 112號2樓","websiteUri":"https://www.facebook.com/ren.he.yuan","displayName":{"languageCode":"en","text":"Jen Ho Yuan"}},"lat":25.0608263,"lng":121.5224875},{"place":{"types":["deli","restaurant","food_store","food","store","point_of_interest","establishment"],"formattedAddress":"No. 153號, Minsheng W Rd, Datong District, Taipei City, Taiwan 103","websiteUri":"https://atongabao.waca.tw/","displayName":{"languageCode":"en","text":"阿桐阿寶四神湯"}},"lat":25.0574281,"lng":121.5176306},{"place":{"types":["chinese_restaurant","restaurant","food","point_of_interest","establishment"],"formattedAddress":"103, Taiwan, Taipei City, Datong District, Section 2, Chengde Rd, 120號1樓","websiteUri":"https://www.facebook.com/%E5%B7%9D%E7%95%9D%E5%9C%92%E9%BA%B5%E9%A3%9F%E9%A4%A8-298639763563980/","displayName":{"languageCode":"en","text":"Chuan Mu Yuan"}},"lat":25.0588524,"lng":121.5179749},{"place":{"types":["restaurant","food","point_of_interest","establishment"],"formattedAddress":"No. 18, Tianxiang Rd, Zhongshan District, Taipei City, Taiwan 104","websiteUri":"https://rink.cc/hhi4s","displayName":{"languageCode":"zh-TW","text":"下港吔羊肉專賣店"}},"lat":25.0610658,"lng":121.5209265},{"place":{"types":["chinese_restaurant","restaurant","food","point_of_interest","establishment"],"formattedAddress":"No. 130號, Zhongyuan St, Zhongshan District, Taipei City, Taiwan 104","websiteUri":"https://www.facebook.com/%E5%B0%8F%E5%93%81%E9%9B%85%E5%BB%9A-163165497064197/","displayName":{"languageCode":"en","text":"Xiao Ping Kitchen"}},"lat":25.0629557,"lng":121.5288109}]