[{"place":{"types":["restaurant","food","point_of_interest","establishment"],"formattedAddress":"No. 78號, Qingshui Rd, Tucheng District, New Taipei City, Taiwan 236","websiteUri":"https://www.acheng.com.tw/","displayName":{"languageCode":"en","text":"A Cheng Goose Meat Tucheng Main Shop"}},"lat":24.9816625,"lng":121.4567959},{"place":{"types":["seafood_restaurant","restaurant","food","point_of_interest","establishment"],"formattedAddress":"No. 22, Section 1, Zhongyang Rd, Tucheng District, New Taipei City, Taiwan 236","websiteUri":"http://www.hpw.com.tw/","displayName":{"languageCode":"en","text":"Hai Pa Wang Haishan Branch"}},"lat":24.9912453,"lng":121.4483639},{"place":{"types":["sushi_restaurant","japanese_restaurant","restaurant","food","point_of_interest","establishment"],"formattedAddress":"No. 80號, Section 2, Jincheng Rd, Tucheng District, New Taipei City, Taiwan 23652","websiteUri":"https://kurasushi.tw/shops","displayName":{"languageCode":"en","text":"KURA SUSHI Tucheng Jincheng Rd. Branch"}},"lat":24.9803951,"lng":121.4533512},{"place":{"types":["fast_food_restaurant","hamburger_restaurant","brunch_restaurant","american_restaurant","restaurant","food","point_of_interest","establishment"],"formattedAddress":"No. 180號, Yumin Rd, Tucheng District, New Taipei City, Taiwan 236","websiteUri":"https://www.mcdonalds.com/tw/zh-tw.html","displayName":{"languageCode":"en","text":"McDonald's"}},"lat":24.9851694,"lng":121.4527135},{"place":{"types":["restaurant","food","point_of_interest","establishment"],"formattedAddress":"No. 14號, Xueshi Rd, Tucheng District, New Taipei City, Taiwan 236","websiteUri":"","displayName":{"languageCode":"zh-TW","text":"熟度精緻鍋物-土城學士店"}},"lat":24.9830019,"lng":121.4535023},{"place":{"types":["restaurant","food","point_of_interest","establishment"],"formattedAddress":"No. 231號, Section 1, Zhonghua Rd, Tucheng District, New Taipei City, Taiwan 236","websiteUri":"","displayName":{"languageCode":"zh-TW","text":"陳家莊魯肉飯"}},"lat":24.9830042,"lng":121.4417583},{"place":{"types":["chinese_restaurant","restaurant","food","point_of_interest","establishment"],"formattedAddress":"No. 129號, Yumin Rd, Tucheng District, New Taipei City, Taiwan 236","websiteUri":"https://www.facebook.com/top2food","displayName":{"languageCode":"en","text":"Two Food Restaurant Tucheng Main Shop"}},"lat":24.9866331,"lng":121.4514876},{"place":{"types":["korean_restaurant","restaurant","food","point_of_interest","establishment"],"formattedAddress":"No. 210號, Section 2, Xuefu Rd, Tucheng District, New Taipei City, Taiwan 23659","websiteUri":"https://www.facebook.com/profile.php?id=100083197298740","displayName":{"languageCode":"zh-TW","text":"打爆豬韓式燒肉吃到飽"}},"lat":24.9788137,"lng":121.445079},{"place":{"types":["dessert_restaurant","restaurant","food","point_of_interest","establishment"],"formattedAddress":"No. 262號, Section 1, Xuefu Rd, Tucheng District, New Taipei City, Taiwan 236","websiteUri":"","displayName":{"languageCode":"zh-TW","text":"土城芋頭之家"}},"lat":24.9844219,"lng":121.4511724},{"place":{"types":["sushi_restaurant","japanese_restaurant","restaurant","food","point_of_interest","establishment"],"formattedAddress":"23659, Taiwan, New Taipei City, Tucheng District, Section 2, Xuefu Rd, 210號, ASE WeMall, 1樓","websiteUri":"http://www.sushiro.com.tw/","displayName":{"languageCode":"zh-TW","text":"スシロー壽司郎 土城日月光店"}},"lat":24.9787439,"lng":121.4451593},{"place":{"types":["restaurant","food","point_of_interest","establishment"],"formattedAddress":"No. 72-3號, Section 2, Mingde Rd, Tucheng District, New Taipei City, Taiwan 236","websiteUri":"","displayName":{"languageCode":"zh-TW","text":"正宗岡山羊肉"}},"lat":24.9835806,"lng":121.4471013},{"place":{"types":["restaurant","food","point_of_interest","establishment"],"formattedAddress":"236, Taiwan, New Taipei City, Tucheng District, Lane 21, Section 2, Zhongyang Rd, 128號與廣場停車場入口同側","websiteUri":"https://www.jhujian.com.tw/","displayName":{"languageCode":"en","text":"Jhujian Tucheng Zhongyang Branch"}},"lat":24.9792901,"lng":121.4450445},{"place":{"types":["seafood_restaurant","restaurant","food","point_of_interest","establishment"],"formattedAddress":"No. 208號, Section 1, Zhonghua Rd, Tucheng District, New Taipei City, Taiwan 236","websiteUri":"","displayName":{"languageCode":"zh-TW","text":"御廚巨籠宴"}},"lat":24.9808948,"lng":121.440079},{"place":{"types":["steak_house","restaurant","food","point_of_interest","establishment"],"formattedAddress":"No. 71號, Guangxing St, Tucheng District, New Taipei City, Taiwan 236","websiteUri":"https://www.facebook.com/people/%E9%AC%A7%E5%BD%86%E7%89%9B-STEAK-HOUSE/100089028613975/","displayName":{"languageCode":"zh-TW","text":"鬧彆牛-土城廣興店"}},"lat":24.9913066,"lng":121.4538632},{"place":{"types":["restaurant","food","point_of_interest","establishment"],"formattedAddress":"No. 123號, Section 1, Zhongyang Rd, Tucheng District, New Taipei City, Taiwan 236","websiteUri":"https://www.facebook.com/profile.php?id=100065171102406","displayName":{"languageCode":"zh-TW","text":"八雲町和牛海鮮鍋物 土城店-新北土城帝王蟹/和牛/龍蝦/生魚片/海鮮火鍋吃到飽 涮涮鍋/麻辣火鍋 2025平價訂位必吃 排隊美食 PTT Dcard"}},"lat":24.9883986,"lng":121.4469685},{"place":{"types":["deli","food_store","restaurant","food","point_of_interest","store","establishment"],"formattedAddress":"No. 44號, Yumin Rd, Tucheng District, New Taipei City, Taiwan 236","websiteUri":"https://page.line.me/253hrdrh","displayName":{"languageCode":"en","text":"Haishan Rice Noodle Soup"}},"lat":24.9881879,"lng":121.4481764},{"place":{"types":["restaurant","food","point_of_interest","establishment"],"formattedAddress":"236, Taiwan, New Taipei City, Tucheng District, Xueshi Rd, 23號靠近裕民路242號","websiteUri":"https://www.jhujian.com.tw/","displayName":{"languageCode":"zh-TW","text":"築間幸福鍋物 土城裕民店 最強宵夜鍋物霸主"}},"lat":24.9823349,"lng":121.4534257},{"place":{"types":["restaurant","food","point_of_interest","establishment"],"formattedAddress":"236, Taiwan, New Taipei City, Tucheng District, 裕民路92巷26弄6號","websiteUri":"https://www.facebook.com/profile.php?id=100088811197739","displayName":{"languageCode":"zh-TW","text":"純韵日式燒烤"}},"lat":24.986047,"lng":121.4489898},{"place":{"types":["seafood_restaurant","chinese_restaurant","restaurant","food","point_of_interest","establishment"],"formattedAddress":"No. 28號, Section 1, Zhonghua Rd, Tucheng District, New Taipei City, Taiwan 236","websiteUri":"https://www.facebook.com/a0222647388","displayName":{"languageCode":"zh-TW","text":"九鼎-渝川食府 (渝派川菜)"}},"lat":24.9902582,"lng":121.4472856},{"place":{"types":["brunch_restaurant","breakfast_restaurant","restaurant","food","point_of_interest","establishment"],"formattedAddress":"No. 106號, Section 2, Mingde Rd, Tucheng District, New Taipei City, Taiwan 236","websiteUri":"https://reurl.cc/eremL","displayName":{"languageCode":"en","text":"Morning Chicken Crowing"}},"lat":24.9842658,"lng":121.4452345}]