[{"place":{"types":["cafe","brunch_restaurant","restaurant","food_store","food","store","point_of_interest","establishment"],"formattedAddress":"No. 42號, Lane 321, Yangguang St, Neihu District, Taipei City, Taiwan 114","websiteUri":"https://www.journeykaffe.org/","displayName":{"languageCode":"en","text":"Journey Kaffe (Yangguang Store)"}},"lat":25.0717879,"lng":121.578129},{"place":{"types":["coffee_shop","cafe","restaurant","food_store","food","store","point_of_interest","establishment"],"formattedAddress":"No. 4號, Lane 26, Gangqian Rd, Neihu District, Taipei City, Taiwan 114","websiteUri":"https://www.facebook.com/TheAntipodean/timeline","displayName":{"languageCode":"en","text":"The Antipodean Neihu"}},"lat":25.0827357,"lng":121.5778058},{"place":{"types":["american_restaurant","restaurant","food","point_of_interest","establishment"],"formattedAddress":"No. 300號, Section 1, Neihu Rd, Neihu District, Taipei City, Taiwan 114","websiteUri":"https://www.secondfloorcafe.com/","displayName":{"languageCode":"en","text":"SECOND FLOOR CAFE Xihu"}},"lat":25.0818498,"lng":121.5686986},{"place":{"types":["restaurant","pub","bar","food","point_of_interest","establishment"],"formattedAddress":"No. 68號, Lane 3, Jihu Rd, Neihu District, Taipei City, Taiwan 11492","websiteUri":"https://www.gumgumonline.com.tw/","displayName":{"languageCode":"en","text":"GUMGUM Neike Branch"}},"lat":25.0805919,"lng":121.5670343},{"place":{"types":["japanese_restaurant","restaurant","food","point_of_interest","establishment"],"formattedAddress":"114, Taiwan, Taipei City, Neihu District, Ruiguang Rd, 631號1樓","websiteUri":"https://lihi1.com/cIiTD","displayName":{"languageCode":"zh-TW","text":"Extension 1 by 橘色"}},"lat":25.0804666,"lng":121.5664467},{"place":{"types":["korean_restaurant","restaurant","food","point_of_interest","establishment"],"formattedAddress":"114, Taiwan, Taipei City, Neihu District, Lane 188, Ruiguang Rd, 43號1F","websiteUri":"http://www.samwon.com.tw/","displayName":{"languageCode":"en","text":"Sam Won Garden"}},"lat":25.0739726,"lng":121.576289},{"place":{"types":["restaurant","food","point_of_interest","establishment"],"formattedAddress":"No. 85號, Zhouzi St, Neihu District, Taipei City, Taiwan 11493","websiteUri":"https://broth-master.com/","displayName":{"languageCode":"en","text":"Broth Master Neihu Branch"}},"lat":25.0803952,"lng":121.5708042},{"place":{"types":["italian_restaurant","restaurant","food","point_of_interest","establishment"],"formattedAddress":"No. 584號, Ruiguang Rd, Neihu District, Taipei City, Taiwan 114","websiteUri":"https://inline.app/booking/pastaio","displayName":{"languageCode":"zh-TW","text":"PASTAIO 手工義大利麵 內湖店"}},"lat":25.0801118,"lng":121.5662413},{"place":{"types":["cafe","brunch_restaurant","restaurant","food_store","food","store","point_of_interest","establishment"],"formattedAddress":"No. 24號, Lane 583, Ruiguang Rd, Neihu District, Taipei City, Taiwan 114","websiteUri":"https://www.journeykaffe.org/","displayName":{"languageCode":"en","text":"Journey Kaffe Xihu"}},"lat":25.0805962,"lng":121.5682654},{"place":{"types":["fast_food_restaurant","hamburger_restaurant","brunch_restaurant","american_restaurant","restaurant","food","point_of_interest","establishment"],"formattedAddress":"No. 741號, Section 1, Neihu Rd, Neihu District, Taipei City, Taiwan 114","websiteUri":"https://www.mcdonalds.com/tw/zh-tw.html","displayName":{"languageCode":"en","text":"McDonald's Taipei Neihu"}},"lat":25.0789852,"lng":121.5785576},{"place":{"types":["restaurant","food","point_of_interest","establishment"],"formattedAddress":"114, Taiwan, Taipei City, Neihu District, Section 1, Neihu Rd, 318號1樓","websiteUri":"https://www.jhujian.com.tw/","displayName":{"languageCode":"en","text":"Jhu Jian Taipei Neihu"}},"lat":25.0816378,"lng":121.5697729},{"place":{"types":["brunch_restaurant","restaurant","food_store","food","store","point_of_interest","establishment"],"formattedAddress":"114, Taiwan, Taipei City, Neihu District, Ruiguang Rd, 168號1樓","websiteUri":"http://instagram.com/leaves_cafe_dining/","displayName":{"languageCode":"zh-TW","text":"LEAVES Cafe 午葉內湖旗艦店"}},"lat":25.0738908,"lng":121.5786041},{"place":{"types":["thai_restaurant","restaurant","food","point_of_interest","establishment"],"formattedAddress":"No. 2號, Lane 600, Section 1, Neihu Rd, Neihu District, Taipei City, Taiwan 114","websiteUri":"https://pming-thaikitchen.weebly.com/","displayName":{"languageCode":"en","text":"P.Ming"}},"lat":25.078571,"lng":121.5781478},{"place":{"types":["japanese_restaurant","restaurant","food","point_of_interest","establishment"],"formattedAddress":"114, Taiwan, Taipei City, Neihu District, Ruiguang Rd, 333號1 樓","websiteUri":"https://www.facebook.com/profile.php?id=100064130830904\u0026mibextid=LQQJ4d","displayName":{"languageCode":"zh-TW","text":"一番地 內湖宏匯店"}},"lat":25.077132,"lng":121.5743966},{"place":{"types":["chinese_restaurant","restaurant","food","point_of_interest","establishment"],"formattedAddress":"No. 2號, Lane 360, Section 1, Neihu Rd, Neihu District, Taipei City, Taiwan 114","websiteUri":"https://facebook.com/FUNBARCLASSIC/","displayName":{"languageCode":"zh-TW","text":"飯BAR 內湖創始店"}},"lat":25.0811777,"lng":121.5704544},{"place":{"types":["brunch_restaurant","liquor_store","american_restaurant","restaurant","food_store","food","store","point_of_interest","establishment"],"formattedAddress":"114, Taiwan, Taipei City, Neihu District, Lane 583, Ruiguang Rd, 25號1樓","websiteUri":"https://m.facebook.com/Marcus.warehouse2/?locale2=zh_TW","displayName":{"languageCode":"zh-TW","text":"Marcus老倉庫內湖店"}},"lat":25.0807832,"lng":121.5678828},{"place":{"types":["restaurant","food","point_of_interest","establishment"],"formattedAddress":"No. 2, Alley 16, Lane 323, Section 1, Neihu Rd, Neihu District, Taipei City, Taiwan 114","websiteUri":"https://www.facebook.com/%E7%89%9B%E8%80%B3%E7%B2%BE%E7%B7%BB%E9%BA%B5%E9%A4%A8-213737975357856/","displayName":{"languageCode":"zh-TW","text":"牛耳精緻麵館"}},"lat":25.0835362,"lng":121.5677553},{"place":{"types":["chinese_restaurant","meal_takeaway","restaurant","food","point_of_interest","establishment"],"formattedAddress":"No. 5號, Lane 68, Lishan St, Neihu District, Taipei City, Taiwan 114","websiteUri":"https://www.facebook.com/21callnoodle/","displayName":{"languageCode":"zh-TW","text":"文湖21雞湯麵"}},"lat":25.0821508,"lng":121.5793312},{"place":{"types":["asian_restaurant","chinese_restaurant","restaurant","food","point_of_interest","establishment"],"formattedAddress":"No. 15號, Alley 22, Lane 513, Ruiguang Rd, Neihu District, Taipei City, Taiwan 114","websiteUri":"https://www.xssphakkacuisine.com/","displayName":{"languageCode":"zh-TW","text":"巷上食璞川菜客家菜"}},"lat":25.0801965,"lng":121.5686985},{"place":{"types":["restaurant","japanese_restaurant","food","point_of_interest","establishment"],"formattedAddress":"No. 320號, Section 1, Neihu Rd, Neihu District, Taipei City, Taiwan 114","websiteUri":"https://www.jhujian.com.tw/yakiniku_smile/tw","displayName":{"languageCode":"zh-TW","text":"焼肉スマイル（燒肉Smile）台北內湖店"}},"lat":25.0815289,"lng":121.5697476}]