[{"place":{"types":["dessert_shop","dessert_restaurant","confectionery","restaurant","point_of_interest","food_store","store","food","establishment"],"formattedAddress":"No. 8號, Lane 75, Section 2, Shipai Rd, Beitou District, Taipei City, Taiwan 112","websiteUri":"https://www.instagram.com/sgb_dessert_2005/","displayName":{"languageCode":"zh-TW","text":"水龜伯古早味"}},"lat":25.1169194,"lng":121.515813},{"place":{"types":["restaurant","point_of_interest","food","establishment"],"formattedAddress":"No. 100, Section 7, Chengde Rd, Beitou District, Taipei City, Taiwan 112","websiteUri":"https://www.facebook.com/profile.php?id=100069468690536","displayName":{"languageCode":"zh-TW","text":"滷三塊五花肉飯"}},"lat":25.1120052,"lng":121.5102914},{"place":{"types":["breakfast_restaurant","deli","restaurant","point_of_interest","food_store","store","food","establishment"],"formattedAddress":"No. 7號, Lane 48, Shijian St, Beitou District, Taipei City, Taiwan 112","websiteUri":"https://www.facebook.com/%E7%9F%B3%E7%89%8C%E5%AF%A6%E8%B8%90%E8%A1%9748%E5%B7%B7%E5%82%B3%E7%B5%B1%E6%89%8B%E5%B7%A5%E8%9B%8B%E9%A4%85-167621789978815/","displayName":{"languageCode":"zh-TW","text":"石牌無名手工蛋餅"}},"lat":25.1147398,"lng":121.5093134},{"place":{"types":["deli","restaurant","point_of_interest","food_store","store","food","establishment"],"formattedAddress":"No. 5號, Lane 40, Yuminyi Rd, Beitou District, Taipei City, Taiwan 112","websiteUri":"https://www.24h.idv.tw/","displayName":{"languageCode":"zh-TW","text":"阿財鍋貼餃子專賣店"}},"lat":25.1163453,"lng":121.5179455},{"place":{"types":["restaurant","point_of_interest","food","establishment"],"formattedAddress":"No. 15號, Lane 40, Yuminyi Rd, Beitou District, Taipei City, Taiwan 112","websiteUri":"","displayName":{"languageCode":"zh-TW","text":"彈芽麵"}},"lat":25.1160077,"lng":121.5179049},{"place":{"types":["fast_food_restaurant","brunch_restaurant","hamburger_restaurant","american_restaurant","restaurant","point_of_interest","food","establishment"],"formattedAddress":"No. 126號, Section 2, Shipai Rd, Beitou District, Taipei City, Taiwan 112","websiteUri":"https://www.mcdonalds.com/tw/zh-tw.html","displayName":{"languageCode":"en","text":"McDonald's"}},"lat":25.1178786,"lng":121.5173817},{"place":{"types":["vegetarian_restaurant","restaurant","point_of_interest","food","establishment"],"formattedAddress":"No. 112號, Lane 166, Section 1, Shipai Rd, Beitou District, Taipei City, Taiwan 112","websiteUri":"","displayName":{"languageCode":"zh-TW","text":"全家福素食"}},"lat":25.112849,"lng":121.5147274},{"place":{"types":["seafood_restaurant","restaurant","point_of_interest","food","establishment"],"formattedAddress":"No. 114號, Section 2, Donghua St, Beitou District, Taipei City, Taiwan 112","websiteUri":"https://www.facebook.com/cyclamen.restaurant/","displayName":{"languageCode":"en","text":"Cyclamen Garden Seafood Restaurant"}},"lat":25.1186449,"lng":121.5131131},{"place":{"types":["restaurant","point_of_interest","food","establishment"],"formattedAddress":"No. 105號, Tianmu W Rd, Beitou District, Taipei City, Taiwan 112","websiteUri":"http://www.sarahouse.com.tw/","displayName":{"languageCode":"en","text":"Sara House"}},"lat":25.1188526,"lng":121.5237051},{"place":{"types":["vegetarian_restaurant","dessert_restaurant","chinese_restaurant","restaurant","point_of_interest","food","establishment"],"formattedAddress":"112, Taiwan, Taipei City, Beitou District, Mingde Rd, 365號2樓","websiteUri":"http://suhung.com.tw/","displayName":{"languageCode":"zh-TW","text":"蘇杭365"}},"lat":25.1185042,"lng":121.5210206},{"place":{"types":["dessert_restaurant","restaurant","point_of_interest","food","establishment"],"formattedAddress":"112, Taiwan, Taipei City, Beitou District, Yumin 1st Rd, 49號1樓","websiteUri":"https://www.facebook.com/%E8%B1%86%E8%8A%B1%E6%9E%97-122004267887538/","displayName":{"languageCode":"zh-TW","text":"豆花林"}},"lat":25.1166367,"lng":121.5179776},{"place":{"types":["restaurant","point_of_interest","food","establishment"],"formattedAddress":"111, Taiwan, Taipei City, Shilin District, Keqiang Rd, 30號1樓","websiteUri":"https://inline.app/booking/-Ms-c35Cl4tkU6gcEp95:inline-live-2/-Ms-c3J2V-OLEqlouoG3?language=zh-tw","displayName":{"languageCode":"zh-TW","text":"甲蟲秘境(親子友善餐廳)"}},"lat":25.1091372,"lng":121.5232939},{"place":{"types":["restaurant","point_of_interest","food","establishment"],"formattedAddress":"No. 160號, Section 1, Shipai Rd, Beitou District, Taipei City, Taiwan 112","websiteUri":"https://www.jhujian.com.tw/","displayName":{"languageCode":"zh-TW","text":"築間幸福鍋物 北投石牌店"}},"lat":25.1143454,"lng":121.5133358},{"place":{"types":["deli","korean_restaurant","restaurant","point_of_interest","food_store","store","food","establishment"],"formattedAddress":"No. 41號, Section 1, Shipai Rd, Beitou District, Taipei City, Taiwan 112","websiteUri":"https://www.facebook.com/pages/%E6%9D%BF%E6%A9%8B%E5%8D%97%E9%9B%85%E5%A4%9C%E5%B8%82%E5%A5%BD%E5%91%B3%E9%81%93%E8%87%AD%E8%B1%86%E8%85%90/204811299534833","displayName":{"languageCode":"zh-TW","text":"好味道臭豆腐（車庫臭豆腐）"}},"lat":25.1132571,"lng":121.5103967},{"place":{"types":["seafood_restaurant","restaurant","point_of_interest","food","establishment"],"formattedAddress":"No. 60號, Yumin 2nd Rd, Beitou District, Taipei City, Taiwan 112","websiteUri":"https://www.facebook.com/DaihatsuSeafood/","displayName":{"languageCode":"zh-TW","text":"大發生猛海鮮餐廳"}},"lat":25.1148162,"lng":121.5162582},{"place":{"types":["chinese_restaurant","meal_takeaway","restaurant","point_of_interest","food","establishment"],"formattedAddress":"No. 98號, Section 7, Chengde Rd, Beitou District, Taipei City, Taiwan 112","websiteUri":"","displayName":{"languageCode":"zh-TW","text":"阿亮小吃 (必吃宵夜美食、平價小吃、人氣銅板料理)便當餐盒外送外帶 石牌士林"}},"lat":25.11195,"lng":121.510303},{"place":{"types":["chinese_restaurant","restaurant","point_of_interest","food","establishment"],"formattedAddress":"No. 77號, Section 2, Shipai Rd, Beitou District, Taipei City, Taiwan 112","websiteUri":"https://www.facebook.com/%E9%98%BF%E4%BA%8C%E9%BA%BB%E8%BE%A3%E9%A3%9F%E5%A0%82-%E7%9F%B3%E7%89%8C%E7%B8%BD%E5%BA%97-143622392928933/","displayName":{"languageCode":"zh-TW","text":"雲鼎阿二麻辣食堂石牌店"}},"lat":25.1168416,"lng":121.5161148},{"place":{"types":["japanese_restaurant","restaurant","point_of_interest","food","establishment"],"formattedAddress":"112, Taiwan, Taipei City, Beitou District, Lane 68, Section 2, Shipai Rd, 22號1樓","websiteUri":"https://inline.app/booking/-M4C7F7gVAP3pt93e5Mi:inline-live-1/-MSRIyma9hNXCI4c-GmC","displayName":{"languageCode":"zh-TW","text":"蔦燒日式居酒屋-石牌店"}},"lat":25.1162263,"lng":121.5167907},{"place":{"types":["japanese_restaurant","restaurant","point_of_interest","food","establishment"],"formattedAddress":"No. 22號, Lane 114, Yuminliu Rd, Beitou District, Taipei City, Taiwan 11282","websiteUri":"https://www.gt-yakiniku.com/","displayName":{"languageCode":"en","text":"Good time"}},"lat":25.1143,"lng":121.5180837},{"place":{"types":["restaurant","point_of_interest","food","establishment"],"formattedAddress":"No. 209號, Section 2, Xi'an St, Beitou District, Taipei City, Taiwan 112","websiteUri":"https://www.facebook.com/share/1A8qYP1tJi/","displayName":{"languageCode":"zh-TW","text":"長疆碳燒羊肉爐-北投店"}},"lat":25.1198986,"lng":121.5097567}]