[{"place":{"types":["deli","food_store","restaurant","food","point_of_interest","store","establishment"],"formattedAddress":"No. 40號, Daren St, Sanchong District, New Taipei City, Taiwan 241","websiteUri":"https://m.facebook.com/pages/%E4%BB%8A%E5%A4%A7%E6%BB%B7%E8%82%89%E9%A3%AF/188468101171943","displayName":{"languageCode":"en","text":"Jin Da Braised Pork Rice"}},"lat":25.0644884,"lng":121.4916365},{"place":{"types":["deli","food_store","restaurant","food","point_of_interest","store","establishment"],"formattedAddress":"No. 27, Datong N Rd, Sanchong District, New Taipei City, Taiwan 241","websiteUri":"https://m.facebook.com/dianxiaoerr/","displayName":{"languageCode":"zh-TW","text":"店小二魯肉飯"}},"lat":25.0626245,"lng":121.4955997},{"place":{"types":["asian_restaurant","deli","chinese_restaurant","food_store","restaurant","food","point_of_interest","store","establishment"],"formattedAddress":"No. 100, Section 1, Chongyang Rd, Sanchong District, New Taipei City, Taiwan 241","websiteUri":"https://www.facebook.com/%E9%9C%B8%E5%91%B3%E8%96%91%E6%AF%8D%E9%B4%A8%E5%85%A8%E5%8F%B0%E7%B8%BD%E5%BA%97-198307646854562/","displayName":{"languageCode":"zh-TW","text":"霸味薑母鴨"}},"lat":25.0595214,"lng":121.4865481},{"place":{"types":["sushi_restaurant","japanese_restaurant","restaurant","food","point_of_interest","establishment"],"formattedAddress":"No. 1號, Jieyun Rd, Sanchong District, New Taipei City, Taiwan 24162","websiteUri":"https://kurasushi.tw/shops","displayName":{"languageCode":"en","text":"KURA SUSHI Sanchong Jieyun Road Branch"}},"lat":25.0567663,"lng":121.486285},{"place":{"types":["restaurant","food","point_of_interest","establishment"],"formattedAddress":"No. 38號, Zhengyi N Rd, Sanchong District, New Taipei City, Taiwan 241","websiteUri":"https://www.5dengjiang.com.tw/home","displayName":{"languageCode":"zh-TW","text":"五燈獎豬腳滷肉飯（正義北路店）"}},"lat":25.0634636,"lng":121.4973489},{"place":{"types":["fast_food_restaurant","hamburger_restaurant","brunch_restaurant","american_restaurant","restaurant","food","point_of_interest","establishment"],"formattedAddress":"No. 5號, Section 1, Chongyang Rd, Sanchong District, New Taipei City, Taiwan 241","websiteUri":"https://www.mcdonalds.com/tw/zh-tw.html","displayName":{"languageCode":"en","text":"McDonald's"}},"lat":25.0576563,"lng":121.4868984},{"place":{"types":["japanese_restaurant","restaurant","food","point_of_interest","establishment"],"formattedAddress":"241, Taiwan, New Taipei City, Sanchong District, Section 2, Chongxin Rd, 100號1樓","websiteUri":"https://www.jhujian.com.tw/yakiniku_smile/tw","displayName":{"languageCode":"en","text":"Yakiniku Smile New Taipei Sanchong Branch"}},"lat":25.0616548,"lng":121.4968455},{"place":{"types":["restaurant","food","point_of_interest","establishment"],"formattedAddress":"No. 223號, Guangxing St, Sanchong District, New Taipei City, Taiwan 241","websiteUri":"","displayName":{"languageCode":"zh-TW","text":"光興腿庫"}},"lat":25.0595255,"lng":121.4942923},{"place":{"types":["restaurant","food","point_of_interest","establishment"],"formattedAddress":"No. 30號, Lane 86, Zhengyi S Rd, Sanchong District, New Taipei City, Taiwan 241","websiteUri":"https://www.wumamii.com.tw/fan/00597dd5de.html","displayName":{"languageCode":"en","text":"Menqian Yin Wei Beef Noodle Restaurant"}},"lat":25.0580566,"lng":121.499839},{"place":{"types":["restaurant","food","point_of_interest","establishment"],"formattedAddress":"No. 2-1號, Zhengyi S Rd, Sanchong District, New Taipei City, Taiwan 241","websiteUri":"https://zh-cn.facebook.com/pages/%E6%97%BA%E8%A7%92%E8%BF%B7%E4%BD%A0%E7%9F%B3%E9%A0%AD%E7%81%AB%E9%8D%8B/121118437962115","displayName":{"languageCode":"en","text":"Wang Jiao Hot Stone Pot"}},"lat":25.06199,"lng":121.4980455},{"place":{"types":["chinese_restaurant","restaurant","food","point_of_interest","establishment"],"formattedAddress":"No. 82-84號, Section 4, Chongxin Rd, Sanchong District, New Taipei City, Taiwan 241","websiteUri":"https://www.facebook.com/%E8%8C%B6%E9%A8%B7%E6%9C%89%E5%91%B3%E9%A6%99%E6%B8%AF%E8%8C%B6%E9%A4%90%E5%BB%B3-1618204048489675/","displayName":{"languageCode":"en","text":"茶騷有味香港茶餐廳"}},"lat":25.0572781,"lng":121.4881875},{"place":{"types":["restaurant","food","point_of_interest","establishment"],"formattedAddress":"No. 119號, Section 1, Ziqiang Rd, Sanchong District, New Taipei City, Taiwan 241","websiteUri":"http://5dengjiang.com.tw/","displayName":{"languageCode":"zh-TW","text":"五燈獎"}},"lat":25.0665224,"lng":121.4954516},{"place":{"types":["restaurant","food","point_of_interest","establishment"],"formattedAddress":"No. 1號, Sanning St, Sanchong District, New Taipei City, Taiwan 241","websiteUri":"","displayName":{"languageCode":"zh-TW","text":"小上海小吃"}},"lat":25.059221,"lng":121.488903},{"place":{"types":["restaurant","food","point_of_interest","establishment"],"formattedAddress":"No. 170, Section 1, Ziqiang Rd, Sanchong District, New Taipei City, Taiwan 241","websiteUri":"https://www.facebook.com/nightleaf170/","displayName":{"languageCode":"zh-TW","text":"夜葉食堂三重店"}},"lat":25.0662349,"lng":121.4952782},{"place":{"types":["restaurant","food","point_of_interest","establishment"],"formattedAddress":"241, Taiwan, New Taipei City, Sanchong District, Section 2, Chongxin Rd, 79號1樓","websiteUri":"https://www.twfondueretro.com/","displayName":{"languageCode":"zh-TW","text":"狂一鍋－三重重新店－鹹香湯頭專門店"}},"lat":25.0619308,"lng":121.4963284},{"place":{"types":["dessert_restaurant","deli","food_store","restaurant","food","point_of_interest","store","establishment"],"formattedAddress":"No. 11號, Lane 130, Section 1, Chongyang Rd, Sanchong District, New Taipei City, Taiwan 241","websiteUri":"https://www.facebook.com/pages/%E4%B8%89%E9%87%8D%E5%A5%BD%E5%90%83%E7%9A%84%E8%B1%86%E8%8A%B1/190687784299923","displayName":{"languageCode":"zh-TW","text":"三重稅捐處豆花（無名豆花小站）"}},"lat":25.0605772,"lng":121.4860754},{"place":{"types":["restaurant","food","point_of_interest","establishment"],"formattedAddress":"No. 92號, Section 2, Chongxin Rd, Sanchong District, New Taipei City, Taiwan 241","websiteUri":"https://www.jhujian.com.tw/","displayName":{"languageCode":"zh-TW","text":"築間幸福鍋物 新北三重店"}},"lat":25.0617861,"lng":121.4970844},{"place":{"types":["steak_house","restaurant","food","point_of_interest","establishment"],"formattedAddress":"No. 83號, Cheng Gong Rd, Sanchong District, New Taipei City, Taiwan 241","websiteUri":"https://www.facebook.com/chiati29746358/","displayName":{"languageCode":"en","text":"Jia Di Steak House"}},"lat":25.051393,"lng":121.488726},{"place":{"types":["restaurant","food","point_of_interest","establishment"],"formattedAddress":"No. 128號, Dazhi St, Sanchong District, New Taipei City, Taiwan 241","websiteUri":"https://www.facebook.com/profile.php?id=61558336564272","displayName":{"languageCode":"zh-TW","text":"順興集團 牛肉麵專賣店 /三重美食/三重餐廳/三重小吃/手沖牛肉麵/高cp值/豆花.仙草 吃到飽/宵夜美食/宵夜"}},"lat":25.0672631,"lng":121.4927966},{"place":{"types":["fast_food_restaurant","hamburger_restaurant","brunch_restaurant","american_restaurant","restaurant","food","point_of_interest","establishment"],"formattedAddress":"No. 15號, Zhengyi N Rd, Sanchong District, New Taipei City, Taiwan 241","websiteUri":"https://www.mcdonalds.com/tw/zh-tw.html","displayName":{"languageCode":"en","text":"McDonald's Sanchong Zhengyi"}},"lat":25.0629782,"lng":121.4978767}]