[{"place":{"types":["restaurant","food","point_of_interest","establishment"],"formattedAddress":"No. 93, Section 1, Neihu Rd, Neihu District, Taipei City, Taiwan 114","websiteUri":"","displayName":{"languageCode":"en","text":"Lai Lai Dow Jang"}},"lat":25.0845233,"lng":121.5614559},{"place":{"types":["chinese_restaurant","restaurant","food","point_of_interest","establishment"],"formattedAddress":"No. 231號, Section 1, Neihu Rd, Neihu District, Taipei City, Taiwan 114","websiteUri":"https://m.facebook.com/100063903486538/","displayName":{"languageCode":"zh-TW","text":"黑美林"}},"lat":25.0826836,"lng":121.565205},{"place":{"types":["american_restaurant","restaurant","food","point_of_interest","establishment"],"formattedAddress":"No. 300號, Section 1, Neihu Rd, Neihu District, Taipei City, Taiwan 114","websiteUri":"https://www.secondfloorcafe.com/","displayName":{"languageCode":"en","text":"SECOND FLOOR CAFE Xihu"}},"lat":25.0818498,"lng":121.5686986},{"place":{"types":["restaurant","pub","bar","food","point_of_interest","establishment"],"formattedAddress":"No. 68號, Lane 3, Jihu Rd, Neihu District, Taipei City, Taiwan 11492","websiteUri":"https://www.gumgumonline.com.tw/","displayName":{"languageCode":"en","text":"GUMGUM Neike Branch"}},"lat":25.0805919,"lng":121.5670343},{"place":{"types":["food_court","restaurant","food","point_of_interest","establishment"],"formattedAddress":"No. 303號, Lequn 3rd Rd, Zhongshan District, Taipei City, Taiwan 10491","websiteUri":"https://www.chunplace.com.tw/","displayName":{"languageCode":"en","text":"CHUN PLACE Dazhi"}},"lat":25.0827634,"lng":121.559968},{"place":{"types":["thai_restaurant","cafeteria","seafood_restaurant","restaurant","food","point_of_interest","establishment"],"formattedAddress":"104053, Taiwan, Taipei City, Zhongshan District, ZhiFu Rd, 200號, Hotel Indigo Taipei North, 4F4樓","websiteUri":"https://www.regenttaiwan.com/dining/outside-dining/spice-market","displayName":{"languageCode":"en","text":"Spice Market Hotel Indigo Taipei North Store"}},"lat":25.0829233,"lng":121.5602782},{"place":{"types":["asian_restaurant","chinese_restaurant","restaurant","food","point_of_interest","establishment"],"formattedAddress":"No. 199號, Lequn 2nd Rd, Zhongshan District, Taipei City, Taiwan 10491","websiteUri":"https://www.shinyeh.com.tw/content/zh/Brand/Index.aspx?BrandId=11","displayName":{"languageCode":"en","text":"Shin Yeh Taiwanese Signature TM Midtown Branch"}},"lat":25.0804289,"lng":121.5592994},{"place":{"types":["french_restaurant","restaurant","food","point_of_interest","establishment"],"formattedAddress":"No. 301號, Lequn 3rd Rd, Zhongshan District, Taipei City, Taiwan 10491","websiteUri":"http://www.raw.com.tw/","displayName":{"languageCode":"en","text":"RAW"}},"lat":25.0828079,"lng":121.5594304},{"place":{"types":["restaurant","night_club","bar","food","point_of_interest","establishment"],"formattedAddress":"104, Taiwan, Taipei City, Zhongshan District, Jingye 3rd Rd, 20號5F","websiteUri":"http://www.lebledor.com/location/miramar?utm_source=GMB\u0026utm_medium=website-btn\u0026utm_campaign=miramar","displayName":{"languageCode":"en","text":"Le blé dór"}},"lat":25.0833072,"lng":121.5571648},{"place":{"types":["japanese_restaurant","restaurant","food","point_of_interest","establishment"],"formattedAddress":"114, Taiwan, Taipei City, Neihu District, Ruiguang Rd, 631號1樓","websiteUri":"https://lihi1.com/cIiTD","displayName":{"languageCode":"zh-TW","text":"Extension 1 by 橘色"}},"lat":25.0804666,"lng":121.5664467},{"place":{"types":["hotel","inn","buffet_restaurant","lodging","restaurant","food","point_of_interest","establishment"],"formattedAddress":"No. 566號, Section 2, Tiding Blvd, Zhongshan District, Taipei City, Taiwan 10491","websiteUri":"http://www.saurahotel.com.tw/","displayName":{"languageCode":"en","text":"Saura Hotel \u0026 Banquet"}},"lat":25.0839901,"lng":121.5603664},{"place":{"types":["restaurant","food","point_of_interest","establishment"],"formattedAddress":"No. 85號, Zhouzi St, Neihu District, Taipei City, Taiwan 11493","websiteUri":"https://broth-master.com/","displayName":{"languageCode":"en","text":"Broth Master Neihu Branch"}},"lat":25.0803952,"lng":121.5708042},{"place":{"types":["italian_restaurant","restaurant","food","point_of_interest","establishment"],"formattedAddress":"No. 584號, Ruiguang Rd, Neihu District, Taipei City, Taiwan 114","websiteUri":"https://inline.app/booking/pastaio","displayName":{"languageCode":"zh-TW","text":"PASTAIO 手工義大利麵 內湖店"}},"lat":25.0801118,"lng":121.5662413},{"place":{"types":["cafe","brunch_restaurant","food_store","restaurant","food","point_of_interest","store","establishment"],"formattedAddress":"No. 24號, Lane 583, Ruiguang Rd, Neihu District, Taipei City, Taiwan 114","websiteUri":"https://www.journeykaffe.org/","displayName":{"languageCode":"en","text":"Journey Kaffe Xihu"}},"lat":25.0805962,"lng":121.5682654},{"place":{"types":["chinese_restaurant","restaurant","food","point_of_interest","establishment"],"formattedAddress":"104, Taiwan, Taipei City, Zhongshan District, Lequn 3rd Rd, 303號3樓","websiteUri":"https://www.chiouhwa.com/","displayName":{"languageCode":"en","text":"Chiou Hwa Chun Place Dazhi Branch"}},"lat":25.0827959,"lng":121.5603287},{"place":{"types":["restaurant","food","point_of_interest","establishment"],"formattedAddress":"114, Taiwan, Taipei City, Neihu District, Section 1, Neihu Rd, 318號1樓","websiteUri":"https://www.jhujian.com.tw/","displayName":{"languageCode":"en","text":"Jhu Jian Taipei Neihu"}},"lat":25.0816378,"lng":121.5697729},{"place":{"types":["convention_center","wedding_venue","pub","brunch_restaurant","bar","event_venue","restaurant","food","point_of_interest","establishment"],"formattedAddress":"No. 466號, Section 2, Tiding Blvd, Zhongshan District, Taipei City, Taiwan 10491","websiteUri":"https://inline.app/booking/-NgqDAocoR1aDYEHFgsG:inline-live-3/-NgqDB5OmYO3iBrj8h1a","displayName":{"languageCode":"zh-TW","text":"Poetry 如詩｜大直早午餐、餐酒館"}},"lat":25.0816031,"lng":121.5617271},{"place":{"types":["american_restaurant","barbecue_restaurant","restaurant","food","point_of_interest","establishment"],"formattedAddress":"No. 216號, Lequn 2nd Rd, Zhongshan District, Taipei City, Taiwan 10491","websiteUri":"https://linktr.ee/EdsDinerTaipei","displayName":{"languageCode":"zh-TW","text":"ED's Diner美式BBQ燒烤餐館 Est. 2011"}},"lat":25.0796878,"lng":121.560048},{"place":{"types":["ramen_restaurant","japanese_restaurant","restaurant","food","point_of_interest","establishment"],"formattedAddress":"No. 33, Section 1, Huanshan Rd, Neihu District, Taipei City, Taiwan 114","websiteUri":"https://www.facebook.com/%E9%B6%8F%E5%90%89%E5%90%9B-%E3%81%A8%E3%82%8A%E3%82%88%E3%81%97%E3%81%8F%E3%82%93-%E3%82%89%E3%83%BC%E3%82%81%E3%82%93%E9%9B%9E%E7%99%BD%E6%B9%AF%E5%B0%88%E9%96%80-1812208619091336/","displayName":{"languageCode":"en","text":"鸡吉君拉面"}},"lat":25.0862029,"lng":121.5670012},{"place":{"types":["brunch_restaurant","american_restaurant","food_store","liquor_store","restaurant","food","point_of_interest","store","establishment"],"formattedAddress":"114, Taiwan, Taipei City, Neihu District, Lane 583, Ruiguang Rd, 25號1樓","websiteUri":"https://m.facebook.com/Marcus.warehouse2/?locale2=zh_TW","displayName":{"languageCode":"zh-TW","text":"Marcus老倉庫內湖店"}},"lat":25.0807832,"lng":121.5678828}]