[{"place":{"types":["supermarket","deli","sushi_restaurant","confectionery","japanese_restaurant","restaurant","point_of_interest","grocery_store","food_store","store","food","establishment"],"formattedAddress":"No. 56號, Section 2, Wuchang St, Wanhua District, Taipei City, Taiwan 108","websiteUri":"https://www.dondondonki.com/tw/","displayName":{"languageCode":"en","text":"DON DON DONKI | Ximen Store"}},"lat":25.0446257,"lng":121.506883},{"place":{"types":["restaurant","point_of_interest","food","establishment"],"formattedAddress":"No. 8-1號, Emei St, Wanhua District, Taipei City, Taiwan 108","websiteUri":"https://aychungflourricenoodle.shop/","displayName":{"languageCode":"en","text":"Ay-Chung Flour-Rice Noodle"}},"lat":25.0433092,"lng":121.5076117},{"place":{"types":["restaurant","point_of_interest","food","establishment"],"formattedAddress":"No. 67-69, Luoyang St, Wanhua District, Taipei City, Taiwan 108","websiteUri":"https://facebook.com/pages/%E5%AF%8C%E5%AE%8F%E7%89%9B%E8%82%89%E9%BA%B5-%E5%8E%9F%E5%BB%BA%E5%AE%8F%E7%89%9B%E8%82%89%E9%BA%B5/519285271483011","displayName":{"languageCode":"en","text":"Fuhong Beef Noodles"}},"lat":25.0476045,"lng":121.5077276},{"place":{"types":["restaurant","point_of_interest","food","establishment"],"formattedAddress":"108, Taiwan, Taipei City, Wanhua District, Huaxi St, 17之4號攤位153號","websiteUri":"https://wangsbroth.com/","displayName":{"languageCode":"en","text":"Wang’s Broth"}},"lat":25.0391724,"lng":121.4985651},{"place":{"types":["japanese_restaurant","restaurant","point_of_interest","food","establishment"],"formattedAddress":"No. 116號, Section 2, Guiyang St, Wanhua District, Taipei City, Taiwan 108","websiteUri":"https://sanweishihtang.weebly.com/","displayName":{"languageCode":"en","text":"SUNWAY"}},"lat":25.0399066,"lng":121.50273},{"place":{"types":["chinese_restaurant","restaurant","point_of_interest","food","establishment"],"formattedAddress":"1樓, No. 88號, Section 1, Zhonghua Rd, Wanhua District, Taipei City, Taiwan 108","websiteUri":"https://www.diaominasia.com/","displayName":{"languageCode":"en","text":"Diao Min Asia Sauerkraut Fish Ximen Zhonghua Branch"}},"lat":25.0450651,"lng":121.50852},{"place":{"types":["deli","chinese_restaurant","restaurant","point_of_interest","food_store","store","food","establishment"],"formattedAddress":"108, Taiwan, Taipei City, Wanhua District, 漢中街32巷1號","websiteUri":"","displayName":{"languageCode":"en","text":"Tian Tian Li Delicacies"}},"lat":25.0451719,"lng":121.5076227},{"place":{"types":["restaurant","point_of_interest","food","establishment"],"formattedAddress":"No. 2, Lane 14, Section 1, Kaifeng St, Zhongzheng District, Taipei City, Taiwan 100","websiteUri":"https://www.facebook.com/114637975312065/","displayName":{"languageCode":"en","text":"Liu Shandong Beef Noodles"}},"lat":25.0457149,"lng":121.5137602},{"place":{"types":["restaurant","point_of_interest","food","establishment"],"formattedAddress":"108412, Taiwan, Taipei City, Wanhua District, Guilin Rd, 1號4樓","websiteUri":"https://inline.app/booking/-LamXb5SAQN7JcJfyRKi:inline-live-2a466/-N425UpaiGCtYJn0UCMl?language=zh-tw","displayName":{"languageCode":"en","text":"Haidilao Ximen Branch"}},"lat":25.037703,"lng":121.5061818},{"place":{"types":["chinese_restaurant","restaurant","point_of_interest","food","establishment"],"formattedAddress":"No. 79號, Kangding Rd, Wanhua District, Taipei City, Taiwan 108","websiteUri":"https://www.facebook.com/Yi.Jia.Zi.Snack/","displayName":{"languageCode":"en","text":"Yi Jia Zi"}},"lat":25.0404022,"lng":121.5021711},{"place":{"types":["breakfast_restaurant","restaurant","point_of_interest","store","food","establishment"],"formattedAddress":"No. 30號, Section 2, Hankou St, Wanhua District, Taipei City, Taiwan 108","websiteUri":"","displayName":{"languageCode":"en","text":"Yong He Soy Milk"}},"lat":25.045411,"lng":121.507489},{"place":{"types":["restaurant","point_of_interest","food","establishment"],"formattedAddress":"No. 41號, Neijiang St, Wanhua District, Taipei City, Taiwan 108","websiteUri":"https://www.facebook.com/simonnoodleshop/","displayName":{"languageCode":"en","text":"Ximen Noodle"}},"lat":25.041694,"lng":121.505581},{"place":{"types":["hotel","bar","night_club","lodging","restaurant","point_of_interest","food","establishment"],"formattedAddress":"No. 77, Section 2, Wuchang St, Wanhua District, Taipei City, Taiwan 10843","websiteUri":"https://www.amba-hotels.com/tc/ximending/","displayName":{"languageCode":"en","text":"amba Taipei Ximending"}},"lat":25.0451617,"lng":121.5055717},{"place":{"types":["restaurant","point_of_interest","food","establishment"],"formattedAddress":"10844, Taiwan, Taipei City, Wanhua District, Chengdu Rd, 81號B1","websiteUri":"https://inline.app/booking/-KO9-zyZTRpTH7LNAe99/-NvFDHdbyHM7P2vbgoDP?language=zh-tw","displayName":{"languageCode":"zh-TW","text":"詹記麻辣火鍋-西門大世界"}},"lat":25.0431071,"lng":121.505162},{"place":{"types":["restaurant","point_of_interest","food","establishment"],"formattedAddress":"108, Taiwan, Taipei City, Wanhua District, Xining Rd, 157號2f","websiteUri":"https://www.mala.com.tw/Home/BrandIndex?verificationCode=5F3863B104D33FAF3A27B2A7F4E7183D","displayName":{"languageCode":"en","text":"Mala Hot Pot Ximen Branch"}},"lat":25.0433708,"lng":121.5062369},{"place":{"types":["fast_food_restaurant","brunch_restaurant","hamburger_restaurant","american_restaurant","restaurant","point_of_interest","food","establishment"],"formattedAddress":"之4, No. 92號, Kunming St, Wanhua District, Taipei City, Taiwan 108","websiteUri":"https://www.mcdonalds.com/tw/zh-tw.html","displayName":{"languageCode":"en","text":"McDonald's Kunming Branch"}},"lat":25.0448326,"lng":121.5052146},{"place":{"types":["japanese_restaurant","restaurant","point_of_interest","food","establishment"],"formattedAddress":"108, Taiwan, Taipei City, Wanhua District, Emei St, 37號4樓","websiteUri":"https://www.powerofmeat.com.tw/","displayName":{"languageCode":"en","text":"Power of Meat Ximen Emei Branch"}},"lat":25.0435587,"lng":121.5071583},{"place":{"types":["sushi_restaurant","japanese_restaurant","restaurant","point_of_interest","food","establishment"],"formattedAddress":"100, Taiwan, Taipei City, Zhongzheng District, Section 1, Zhonghua Rd, 41號1樓","websiteUri":"http://www.sushiro.com.tw/","displayName":{"languageCode":"en","text":"SUSHIRO Taipei Zhonghua Restaurant"}},"lat":25.0449144,"lng":121.5095061},{"place":{"types":["chinese_restaurant","restaurant","point_of_interest","food","establishment"],"formattedAddress":"108, Taiwan, Taipei City, Wanhua District, Lane 25, Kangding Rd, 42之一號1樓","websiteUri":"https://zh-tw.facebook.com/%E7%9C%9F%E5%B7%9D%E5%91%B3-213513902010751/","displayName":{"languageCode":"zh-TW","text":"真川味1店"}},"lat":25.0435427,"lng":121.5046841},{"place":{"types":["restaurant","point_of_interest","food","establishment"],"formattedAddress":"108, Taiwan, Taipei City, Wanhua District, Section 1, Zhonghua Rd, 192號1樓","websiteUri":"http://www.facebook.com/kingfood58/","displayName":{"languageCode":"en","text":"Hotpot Restuarant Emperor House"}},"lat":25.0387744,"lng":121.506892}]