[{"place":{"types":["wedding_venue","convention_center","banquet_hall","chinese_restaurant","seafood_restaurant","event_venue","restaurant","food","store","point_of_interest","establishment"],"formattedAddress":"No. 542號, Zhongzheng Rd, Xinzhuang District, New Taipei City, Taiwan 242","websiteUri":"http://www.tcly.com.tw/","displayName":{"languageCode":"zh-TW","text":"天賜良緣大飯店"}},"lat":25.0143077,"lng":121.4116367},{"place":{"types":["restaurant","food","point_of_interest","establishment"],"formattedAddress":"242, Taiwan, New Taipei City, Xinzhuang District, Lane 9, Jian'an St, 16號1樓","websiteUri":"https://www.facebook.com/chuanyuNH","displayName":{"languageCode":"zh-TW","text":"川豫麵館"}},"lat":25.026598,"lng":121.4295359},{"place":{"types":["restaurant","food","point_of_interest","establishment"],"formattedAddress":"No. 160號, Hougang 1st Rd, Xinzhuang District, New Taipei City, Taiwan 242","websiteUri":"","displayName":{"languageCode":"en","text":"Xinzhuang Lamb Rong"}},"lat":25.0275933,"lng":121.4309087},{"place":{"types":["restaurant","food","point_of_interest","establishment"],"formattedAddress":"No. 555號, Zhongzheng Rd, Xinzhuang District, New Taipei City, Taiwan 242","websiteUri":"https://www.facebook.com/profile.php?id=100091241740266\u0026mibextid=LQQJ4d","displayName":{"languageCode":"zh-TW","text":"輔大捷運2號出口-士林水煎包"}},"lat":25.0324865,"lng":121.4351345},{"place":{"types":["restaurant","food","point_of_interest","establishment"],"formattedAddress":"No. 30-4號, Santai Rd, Xinzhuang District, New Taipei City, Taiwan 242","websiteUri":"https://www.facebook.com/Brightmoonduck/","displayName":{"languageCode":"zh-TW","text":"月明薑母鴨"}},"lat":25.0352393,"lng":121.4381429},{"place":{"types":["chinese_restaurant","japanese_restaurant","restaurant","food","point_of_interest","establishment"],"formattedAddress":"No. 571, Zhongzheng Rd, Xinzhuang District, New Taipei City, Taiwan 242","websiteUri":"https://inline.app/booking/-Kt9zrmDQTrukyAcx05M/-KtA5Z7kMoNvmtPpn44A?language=zh-tw","displayName":{"languageCode":"zh-TW","text":"檸檬草美食茶房 新莊店"}},"lat":25.0325497,"lng":121.4348381},{"place":{"types":["steak_house","restaurant","food","point_of_interest","establishment"],"formattedAddress":"No. 695號, Zhongzheng Rd, Xinzhuang District, New Taipei City, Taiwan 242","websiteUri":"","displayName":{"languageCode":"zh-TW","text":"德堡牛排(新莊中正店)"}},"lat":25.0298107,"lng":121.4257991},{"place":{"types":["asian_restaurant","japanese_restaurant","restaurant","food","point_of_interest","establishment"],"formattedAddress":"No. 368號, Zhongzheng Rd, Xinzhuang District, New Taipei City, Taiwan 242","websiteUri":"https://m.facebook.com/GOGO29906060/","displayName":{"languageCode":"zh-TW","text":"八雲町和牛海鮮鍋物 新莊店-新北新莊帝王蟹/和牛/龍蝦/生魚片/海鮮火鍋吃到飽 涮涮鍋/麻辣火鍋 2025平價訂位必吃 排隊美食 PTT Dcard"}},"lat":25.0343057,"lng":121.4434171},{"place":{"types":["fast_food_restaurant","coffee_shop","cafe","meal_takeaway","restaurant","food_store","food","store","point_of_interest","establishment"],"formattedAddress":"No. 617, Zhongzheng Rd, Xinzhuang District, New Taipei City, Taiwan 242","websiteUri":"http://www.mcdonalds.com.tw/","displayName":{"languageCode":"en","text":"McDonald's Xinzhuang Zhongzheng 2nd"}},"lat":25.0317057,"lng":121.4320238},{"place":{"types":["restaurant","food","point_of_interest","establishment"],"formattedAddress":"242, Taiwan, New Taipei City, Xinzhuang District, Lane 340, Zhongzheng Rd, 1號2樓","websiteUri":"https://www.jhujian.com.tw/","displayName":{"languageCode":"zh-TW","text":"築間幸福鍋物 新莊福海店"}},"lat":25.0350618,"lng":121.4445136},{"place":{"types":["japanese_restaurant","restaurant","food","point_of_interest","establishment"],"formattedAddress":"242, Taiwan, New Taipei City, Xinzhuang District, Zhongzheng Rd, 425號2樓","websiteUri":"https://www.yakiyan.com/news-list.html","displayName":{"languageCode":"en","text":"Oh my!Yakiyan Xinzhuang Zhongzheng Branch"}},"lat":25.0341124,"lng":121.4442337},{"place":{"types":["japanese_restaurant","sushi_restaurant","restaurant","food","point_of_interest","establishment"],"formattedAddress":"No. 1號, Jianguo 1st Rd, Xinzhuang District, New Taipei City, Taiwan 242","websiteUri":"https://instagram.com/fishmanysweet?igshid=OGQ5ZDc2ODk2ZA==","displayName":{"languageCode":"zh-TW","text":"魚多甜輔大店"}},"lat":25.032119,"lng":121.433959},{"place":{"types":["restaurant","food","point_of_interest","establishment"],"formattedAddress":"No. 61號, Jianguo 1st Rd, Xinzhuang District, New Taipei City, Taiwan 242","websiteUri":"https://www.12hotpot.com.tw/","displayName":{"languageCode":"en","text":"12 Hot Pot Xinzhuang FuJen University Store"}},"lat":25.0300089,"lng":121.434749},{"place":{"types":["restaurant","food","point_of_interest","establishment"],"formattedAddress":"No. 639號, Zhongzheng Rd, Xinzhuang District, New Taipei City, Taiwan 242","websiteUri":"","displayName":{"languageCode":"zh-TW","text":"新莊豪品味"}},"lat":25.0312217,"lng":121.4307908},{"place":{"types":["seafood_restaurant","restaurant","food","point_of_interest","establishment"],"formattedAddress":"No. 132號, Hougang 1st Rd, Xinzhuang District, New Taipei City, Taiwan 242","websiteUri":"https://lin.ee/k5Prr8g","displayName":{"languageCode":"zh-TW","text":"大姆指生猛海鮮"}},"lat":25.0271596,"lng":121.4295794},{"place":{"types":["restaurant","asian_restaurant","vegetarian_restaurant","meal_delivery","food_delivery","event_venue","japanese_restaurant","food_store","food","store","point_of_interest","establishment"],"formattedAddress":"No. 91, Lane 514, Zhongzheng Rd, Xinzhuang District, New Taipei City, Taiwan 242","websiteUri":"https://taplink.cc/sharekitchen_taipei","displayName":{"languageCode":"en","text":"Share Kitchen"}},"lat":25.0341726,"lng":121.4312521},{"place":{"types":["bar","restaurant","food","point_of_interest","establishment"],"formattedAddress":"No. 490號, Zhongzheng Rd, Xinzhuang District, New Taipei City, Taiwan 242","websiteUri":"https://page.line.me/962rnboi","displayName":{"languageCode":"zh-TW","text":"Answer 安森"}},"lat":25.013133,"lng":121.4125268},{"place":{"types":["pizza_restaurant","restaurant","food","point_of_interest","establishment"],"formattedAddress":"No. 43號, Lane 514, Zhongzheng Rd, Xinzhuang District, New Taipei City, Taiwan 242","websiteUri":"","displayName":{"languageCode":"en","text":"THE PIZZA"}},"lat":25.033329,"lng":121.432299},{"place":{"types":["restaurant","chinese_restaurant","food","point_of_interest","establishment"],"formattedAddress":"No. 516-41號, Zhongzheng Rd, Xinzhuang District, New Taipei City, Taiwan 242","websiteUri":"","displayName":{"languageCode":"zh-TW","text":"官小二酸菜魚 新莊店 /新莊酸菜魚/新莊美食/新莊宵夜/輔大美食"}},"lat":25.0321873,"lng":121.4322953},{"place":{"types":["fast_food_restaurant","restaurant","food","point_of_interest","establishment"],"formattedAddress":"No. 516-3號, Zhongzheng Rd, Xinzhuang District, New Taipei City, Taiwan 242","websiteUri":"https://www.kfcclub.com.tw/","displayName":{"languageCode":"en","text":"KFC Xinzhuang Fu Jen University"}},"lat":25.03246,"lng":121.433307}]