[{"place":{"types":["food_court","tourist_attraction","restaurant","food","point_of_interest","establishment"],"formattedAddress":"No. 360-1號, Zhixing Rd, Beitou District, Taipei City, Taiwan 112","websiteUri":"http://mediasphere.com.tw/venues/13","displayName":{"languageCode":"zh-TW","text":"關渡碼頭貨櫃市集"}},"lat":25.1171038,"lng":121.4634043},{"place":{"types":["fast_food_restaurant","hamburger_restaurant","brunch_restaurant","american_restaurant","restaurant","food","point_of_interest","establishment"],"formattedAddress":"No. 534號, Section 4, Zhongyang N Rd, Beitou District, Taipei City, Taiwan 112","websiteUri":"https://www.mcdonalds.com/tw/zh-tw.html","displayName":{"languageCode":"en","text":"McDonald's Taipei Central"}},"lat":25.1280896,"lng":121.4678115},{"place":{"types":["restaurant","food","point_of_interest","establishment"],"formattedAddress":"112, Taiwan, Taipei City, Beitou District, Ligong St, 21號一樓","websiteUri":"https://www.jhujian.com.tw/","displayName":{"languageCode":"zh-TW","text":"築間幸福鍋物 北投立功店"}},"lat":25.1257411,"lng":121.4693767},{"place":{"types":["brunch_restaurant","restaurant","food","point_of_interest","establishment"],"formattedAddress":"112021, Taiwan, Taipei City, Beitou District, Lane 296, Section 3, Dadu Rd, 42號1樓","websiteUri":"https://liff.line.me/1645278921-kWRPP32q/?accountId=907qiuyq","displayName":{"languageCode":"zh-TW","text":"找午倉Brunch"}},"lat":25.1246119,"lng":121.4670724},{"place":{"types":["vegetarian_restaurant","food_store","restaurant","food","point_of_interest","store","establishment"],"formattedAddress":"112, Taiwan, Taipei City, Beitou District, Lide Rd, 8號1樓","websiteUri":"https://www.facebook.com/dandelion202310","displayName":{"languageCode":"en","text":"Dandelion"}},"lat":25.1238186,"lng":121.472336},{"place":{"types":["japanese_restaurant","restaurant","food","point_of_interest","establishment"],"formattedAddress":"112, Taiwan, Taipei City, Beitou District, Lane 292, Zhixing Rd, 2號一樓","websiteUri":"https://www.facebook.com/donburi168ishokuya","displayName":{"languageCode":"zh-TW","text":"丼布狸居食屋(餐點售完會提早休息，如接近休息時間要來用餐，建議先打電話)"}},"lat":25.121917,"lng":121.4676446},{"place":{"types":["restaurant","food","point_of_interest","establishment"],"formattedAddress":"No. 122, Ligong St, Beitou District, Taipei City, Taiwan 112","websiteUri":"https://www.cowa-mother-care.com.tw/","displayName":{"languageCode":"zh-TW","text":"廣和月子餐"}},"lat":25.1250402,"lng":121.4734008},{"place":{"types":["restaurant","food","point_of_interest","establishment"],"formattedAddress":"No. 1號, Lane 80, Ligong St, Beitou District, Taipei City, Taiwan 112","websiteUri":"https://www.facebook.com/ManHanLaMian/","displayName":{"languageCode":"zh-TW","text":"滿瀚鵝肉拉麵"}},"lat":25.1256496,"lng":121.4697917},{"place":{"types":["brunch_restaurant","cafe","restaurant","food","point_of_interest","establishment"],"formattedAddress":"11257, Taiwan, Taipei City, Beitou District, Alley 3, Lane 515, Section 4, Zhongyang N Rd, 1號1樓","websiteUri":"","displayName":{"languageCode":"zh-TW","text":"Bonita廚房"}},"lat":25.1278927,"lng":121.468668},{"place":{"types":["spanish_restaurant","restaurant","food","point_of_interest","establishment"],"formattedAddress":"No. 92號, Zhixing Rd, Beitou District, Taipei City, Taiwan 112","websiteUri":"https://www.tapashouse.com.tw/tapas92","displayName":{"languageCode":"zh-TW","text":"92水鳥"}},"lat":25.118326,"lng":121.4687008},{"place":{"types":["restaurant","food","point_of_interest","establishment"],"formattedAddress":"112, Taiwan, Taipei City, Beitou District, Section 4, Zhongyang N Rd, 392號淡水線捷運忠義站出口左轉步行約3分鐘","websiteUri":"","displayName":{"languageCode":"zh-TW","text":"河南手工扯麵"}},"lat":25.1287376,"lng":121.4700991},{"place":{"types":["restaurant","food","point_of_interest","establishment"],"formattedAddress":"No. 52號, Lane 260, Zhixing Rd, Beitou District, Taipei City, Taiwan 112","websiteUri":"https://www.tapashouse.com.tw/bistro52","displayName":{"languageCode":"zh-TW","text":"水鳥公園52號"}},"lat":25.1207466,"lng":121.4691238},{"place":{"types":["restaurant","food","point_of_interest","establishment"],"formattedAddress":"No. 40號, Lane 296, Section 3, Dadu Rd, Beitou District, Taipei City, Taiwan 112","websiteUri":"https://www.facebook.com/profile.php?id=100063991515447","displayName":{"languageCode":"zh-TW","text":"星馬海南雞飯"}},"lat":25.1245777,"lng":121.4670558},{"place":{"types":["japanese_restaurant","restaurant","food","point_of_interest","establishment"],"formattedAddress":"No. 52號, Guandu Rd, Beitou District, Taipei City, Taiwan 112","websiteUri":"https://www.facebook.com/guandu52","displayName":{"languageCode":"zh-TW","text":"日村涮涮鍋（關渡必吃超人氣鍋物）"}},"lat":25.1202899,"lng":121.4689784},{"place":{"types":["restaurant","food","point_of_interest","establishment"],"formattedAddress":"No. 17號, Ligong St, Beitou District, Taipei City, Taiwan 112","websiteUri":"https://subway.com.tw/","displayName":{"languageCode":"zh-TW","text":"Subway關渡立功餐廳(中華賓士大樓）"}},"lat":25.1246261,"lng":121.4680786},{"place":{"types":["restaurant","cafe","food","point_of_interest","establishment"],"formattedAddress":"No. 1號, Xueyuan Rd, Beitou District, Taipei City, Taiwan 112","websiteUri":"","displayName":{"languageCode":"zh-TW","text":"達文西廚房DaVinci's Kitchen"}},"lat":25.1335255,"lng":121.4713322},{"place":{"types":["restaurant","food","point_of_interest","establishment"],"formattedAddress":"112, Taiwan, Taipei City, Beitou District, Lane 296, Section 3, Dadu Rd, 41號1樓","websiteUri":"https://www.facebook.com/taipeipaulaner","displayName":{"languageCode":"en","text":"Paulaner Brauhaus"}},"lat":25.1244137,"lng":121.4666717},{"place":{"types":["restaurant","food","point_of_interest","establishment"],"formattedAddress":"No. 538號, Section 4, Zhongyang N Rd, Beitou District, Taipei City, Taiwan 112","websiteUri":"https://www.facebook.com/p/%E5%90%8C%E5%B2%B3%E8%BB%92%E6%B8%AF%E5%BC%8F%E9%BB%9E%E5%BF%83%E7%B2%B5%E8%8F%9C%E6%96%99%E7%90%86-100083428818552/?_rdr","displayName":{"languageCode":"zh-TW","text":"同岳軒｜ 正宗港式飲茶 粵菜料理 ｜港式點心 平價茶餐廳｜人氣美食 年菜外帶宅配推薦"}},"lat":25.1282516,"lng":121.4675705},{"place":{"types":["chinese_restaurant","restaurant","food","point_of_interest","establishment"],"formattedAddress":"No. 491,493號, Section 4, Zhongyang N Rd, Beitou District, Taipei City, Taiwan 112","websiteUri":"https://www.facebook.com/%E8%80%81%E6%B9%96%E5%8D%97%E9%A4%A8%E6%B4%BB%E9%AD%9A18%E5%90%8332%E5%B9%B4%E8%80%81%E5%BA%97-377791595607442/","displayName":{"languageCode":"zh-TW","text":"老湖南館"}},"lat":25.1298722,"lng":121.4715223},{"place":{"types":["restaurant","food","point_of_interest","establishment"],"formattedAddress":"No. 296, Zhixing Rd, Beitou District, Taipei City, Taiwan 112","websiteUri":"https://www.facebook.com/pages/%E9%98%BF%E6%88%90%E5%88%87%E4%BB%94%E9%BA%B5/177498872297647","displayName":{"languageCode":"zh-TW","text":"阿成切仔麵"}},"lat":25.1219862,"lng":121.4674733}]