[{"place":{"types":["restaurant","food","point_of_interest","establishment"],"formattedAddress":"No. 25之7號, Section 4, Zhongyang Rd, Tucheng District, New Taipei City, Taiwan 236","websiteUri":"","displayName":{"languageCode":"zh-TW","text":"工業區烏醋麵"}},"lat":24.9627196,"lng":121.4256295},{"place":{"types":["coffee_shop","fast_food_restaurant","breakfast_restaurant","cafe","meal_takeaway","japanese_restaurant","food_store","restaurant","food","point_of_interest","store","establishment"],"formattedAddress":"No. 50號, Section 4, Zhongyang Rd, Tucheng District, New Taipei City, Taiwan 236","websiteUri":"https://www.sukiya-jp.com.tw/","displayName":{"languageCode":"en","text":"SUKIYA Dingpu Branch"}},"lat":24.9607152,"lng":121.4203092},{"place":{"types":["ramen_restaurant","japanese_restaurant","restaurant","food","point_of_interest","establishment"],"formattedAddress":"No. 87號, Section 4, Zhongyang Rd, Tucheng District, New Taipei City, Taiwan 236","websiteUri":"","displayName":{"languageCode":"zh-TW","text":"43 私廚 I 43 Kitchen"}},"lat":24.9580463,"lng":121.4170114},{"place":{"types":["vietnamese_restaurant","restaurant","food","point_of_interest","establishment"],"formattedAddress":"No. 1-1號, Dingbu St, Tucheng District, New Taipei City, Taiwan 236","websiteUri":"https://www.facebook.com/choncufoodhouse/","displayName":{"languageCode":"zh","text":"Chốn cũ _quán ăn Việt Nam 老地方＿越南料理"}},"lat":24.9582856,"lng":121.4167086},{"place":{"types":["meal_takeaway","restaurant","food","point_of_interest","establishment"],"formattedAddress":"No. 93號, Section 4, Zhongyang Rd, Tucheng District, New Taipei City, Taiwan 236040","websiteUri":"","displayName":{"languageCode":"zh-TW","text":"PIZZA HUT必勝客-土城頂埔店"}},"lat":24.9579636,"lng":121.4169027},{"place":{"types":["chinese_restaurant","restaurant","food","point_of_interest","establishment"],"formattedAddress":"236, Taiwan, New Taipei City, Tucheng District, 12","websiteUri":"","displayName":{"languageCode":"zh-TW","text":"檳榔下土雞城"}},"lat":24.9772803,"lng":121.4570447},{"place":{"types":["brunch_restaurant","restaurant","food","point_of_interest","establishment"],"formattedAddress":"No. 281之6號, Section 4, Zhongyang Rd, Tucheng District, New Taipei City, Taiwan 236","websiteUri":"https://shop.ichefpos.com/store/Y3VNIg8d/ordering","displayName":{"languageCode":"en","text":"Taiyang Cheng Breakfast Restaurant"}},"lat":24.9633178,"lng":121.4257876},{"place":{"types":["indonesian_restaurant","restaurant","food","point_of_interest","establishment"],"formattedAddress":"No. 77號, Section 4, Zhongyang Rd, Tucheng District, New Taipei City, Taiwan 236","websiteUri":"","displayName":{"languageCode":"zh-TW","text":"Warung Ndeso Indah印尼店"}},"lat":24.958015,"lng":121.4173287},{"place":{"types":["meal_takeaway","restaurant","food","point_of_interest","establishment"],"formattedAddress":"No. 281-10號, Section 4, Zhongyang Rd, Tucheng District, New Taipei City, Taiwan 23675","websiteUri":"","displayName":{"languageCode":"zh-TW","text":"胖老爹美式炸雞 土城頂埔店"}},"lat":24.9529679,"lng":121.4119349},{"place":{"types":["restaurant","food","point_of_interest","establishment"],"formattedAddress":"No. 24號, Section 4, Zhongyang Rd, Tucheng District, New Taipei City, Taiwan 236","websiteUri":"https://m.facebook.com/profile.php?id=100085259540291","displayName":{"languageCode":"zh","text":"2派克脆皮雞排 頂埔店"}},"lat":24.9610956,"lng":121.4209145},{"place":{"types":["restaurant","food","point_of_interest","establishment"],"formattedAddress":"No. 128-1號, Section 4, Zhongyang Rd, Tucheng District, New Taipei City, Taiwan 23676","websiteUri":"https://lin.ee/gKageaW","displayName":{"languageCode":"zh-TW","text":"真手作日式料理"}},"lat":24.9589121,"lng":121.4177793},{"place":{"types":["chinese_restaurant","restaurant","food","point_of_interest","establishment"],"formattedAddress":"No. 14號, Zhongzhou Rd, Tucheng District, New Taipei City, Taiwan 236","websiteUri":"https://www.facebook.com/%E5%90%B3%E8%A8%98%E8%92%B8%E8%85%B8%E7%B2%89-1415315105363478/","displayName":{"languageCode":"zh-TW","text":"吳記港煲仔飯"}},"lat":24.9573607,"lng":121.4148473},{"place":{"types":["restaurant","food","point_of_interest","establishment"],"formattedAddress":"No. 145號, Section 4, Zhongyang Rd, Tucheng District, New Taipei City, Taiwan 236","websiteUri":"https://www.facebook.com/%E4%BA%94%E5%85%AB-%E5%A3%BD%E5%8F%B8%E4%B8%BC%E9%A3%AF%E7%83%8F%E9%BE%8D%E9%BA%B5%E5%B0%88%E8%B3%A3%E5%BA%97-1115198698519824","displayName":{"languageCode":"zh-TW","text":"五八壽司·丼飯·烏龍麵"}},"lat":24.9570293,"lng":121.4157177},{"place":{"types":["steak_house","restaurant","food","point_of_interest","establishment"],"formattedAddress":"No. 260號, Section 4, Zhongyang Rd, Tucheng District, New Taipei City, Taiwan 236","websiteUri":"","displayName":{"languageCode":"zh-TW","text":"豪邁平價牛排"}},"lat":24.956879,"lng":121.4148773},{"place":{"types":["restaurant","food","point_of_interest","establishment"],"formattedAddress":"No. 2, Ziyou St, Tucheng District, New Taipei City, Taiwan 236","websiteUri":"http://juicebear.com.tw/","displayName":{"languageCode":"zh-TW","text":"Juice Bear-土城鴻海店"}},"lat":24.966259,"lng":121.4214111},{"place":{"types":["restaurant","food","point_of_interest","establishment"],"formattedAddress":"No. 250號, Section 4, Zhongyang Rd, Tucheng District, New Taipei City, Taiwan 236","websiteUri":"","displayName":{"languageCode":"zh-TW","text":"楊記鍋貼"}},"lat":24.9571391,"lng":121.4150703},{"place":{"types":["thai_restaurant","restaurant","food","point_of_interest","establishment"],"formattedAddress":"No. 43號, Jinan St, Tucheng District, New Taipei City, Taiwan 236","websiteUri":"https://www.facebook.com/profile.php?id=100014151066662\u0026mibextid=LQQJ4d","displayName":{"languageCode":"zh-TW","text":"ร้านคุณชาย泰式小吃"}},"lat":24.9647818,"lng":121.4206513},{"place":{"types":["chinese_restaurant","restaurant","food","point_of_interest","establishment"],"formattedAddress":"No. 216號, Section 4, Zhongyang Rd, Tucheng District, New Taipei City, Taiwan 236","websiteUri":"","displayName":{"languageCode":"zh-TW","text":"頂福川菜"}},"lat":24.9574963,"lng":121.4155838},{"place":{"types":["restaurant","food","point_of_interest","establishment"],"formattedAddress":"No. 159號, Section 4, Zhongyang Rd, Tucheng District, New Taipei City, Taiwan 236","websiteUri":"https://www.8way.com.tw/","displayName":{"languageCode":"en","text":"Ba Fang Yun Ji Dumpling"}},"lat":24.9569169,"lng":121.4154354},{"place":{"types":["restaurant","food","point_of_interest","establishment"],"formattedAddress":"No. 222號, Section 4, Zhongyang Rd, Tucheng District, New Taipei City, Taiwan 236","websiteUri":"","displayName":{"languageCode":"zh-TW","text":"祥好特製雞腿飯"}},"lat":24.9574492,"lng":121.4154867}]