[{"place":{"types":["restaurant","point_of_interest","food","establishment"],"formattedAddress":"108, Taiwan, Taipei City, Wanhua District, Huaxi St, 17之4號攤位153號","websiteUri":"https://wangsbroth.com/","displayName":{"languageCode":"en","text":"Wang’s Broth"}},"lat":25.0391724,"lng":121.4985651},{"place":{"types":["japanese_restaurant","restaurant","point_of_interest","food","establishment"],"formattedAddress":"No. 116號, Section 2, Guiyang St, Wanhua District, Taipei City, Taiwan 108","websiteUri":"https://sanweishihtang.weebly.com/","displayName":{"languageCode":"en","text":"SUNWAY"}},"lat":25.0399066,"lng":121.50273},{"place":{"types":["wedding_venue","banquet_hall","chinese_restaurant","event_venue","restaurant","point_of_interest","food","establishment"],"formattedAddress":"108, Taiwan, Taipei City, Wanhua District, Bangka Blvd, 101號13 樓","websiteUri":"https://www.g-skyview.com/","displayName":{"languageCode":"en","text":"Great Skyview"}},"lat":25.0333147,"lng":121.5014096},{"place":{"types":["restaurant","point_of_interest","food","establishment"],"formattedAddress":"108412, Taiwan, Taipei City, Wanhua District, Guilin Rd, 1號4樓","websiteUri":"https://inline.app/booking/-LamXb5SAQN7JcJfyRKi:inline-live-2a466/-N425UpaiGCtYJn0UCMl?language=zh-tw","displayName":{"languageCode":"en","text":"Haidilao Ximen Branch"}},"lat":25.037703,"lng":121.5061818},{"place":{"types":["chinese_restaurant","restaurant","point_of_interest","food","establishment"],"formattedAddress":"No. 79號, Kangding Rd, Wanhua District, Taipei City, Taiwan 108","websiteUri":"https://www.facebook.com/Yi.Jia.Zi.Snack/","displayName":{"languageCode":"en","text":"Yi Jia Zi"}},"lat":25.0404022,"lng":121.5021711},{"place":{"types":["restaurant","point_of_interest","food","establishment"],"formattedAddress":"No. 41號, Neijiang St, Wanhua District, Taipei City, Taiwan 108","websiteUri":"https://www.facebook.com/simonnoodleshop/","displayName":{"languageCode":"en","text":"Ximen Noodle"}},"lat":25.041694,"lng":121.505581},{"place":{"types":["restaurant","point_of_interest","food","establishment"],"formattedAddress":"108, Taiwan, Taipei City, Wanhua District, Section 1, Zhonghua Rd, 192號1樓","websiteUri":"http://www.facebook.com/kingfood58/","displayName":{"languageCode":"en","text":"Hotpot Restuarant Emperor House"}},"lat":25.0387744,"lng":121.506892},{"place":{"types":["restaurant","point_of_interest","food","establishment"],"formattedAddress":"No. 159號, Chengdu Rd, Wanhua District, Taipei City, Taiwan 10844","websiteUri":"","displayName":{"languageCode":"zh-TW","text":"雅香石頭火鍋(西門總店)"}},"lat":25.0438578,"lng":121.5028191},{"place":{"types":["chinese_restaurant","restaurant","point_of_interest","food","establishment"],"formattedAddress":"No. 104號, Guangzhou St, Wanhua District, Taipei City, Taiwan 108","websiteUri":"https://www.facebook.com/pages/%E5%91%A8%E8%A8%98%E8%82%89%E7%B2%A5%E5%BA%97/147447581982277","displayName":{"languageCode":"en","text":"Zhouji Meat Porridge"}},"lat":25.0364371,"lng":121.502187},{"place":{"types":["restaurant","point_of_interest","food","establishment"],"formattedAddress":"108, Taiwan, Taipei City, Wanhua District, Chengdu Rd, 68號2樓","websiteUri":"https://www.mala.com.tw/Home/BrandIndex?verificationCode=82598D0F6D9F13449E4B95A6FB549B44#LocationNorth","displayName":{"languageCode":"zh-TW","text":"肉之間大盤肉幸福鍋物 西門成都店"}},"lat":25.042837,"lng":121.505239},{"place":{"types":["dessert_restaurant","restaurant","point_of_interest","food","establishment"],"formattedAddress":"108, Taiwan, Taipei City, Wanhua District, 和平西路三段192號","websiteUri":"https://www.facebook.com/LungTuIce/","displayName":{"languageCode":"en","text":"Lung Tu Shaved Ice Specialist"}},"lat":25.0351973,"lng":121.4973332},{"place":{"types":["brunch_restaurant","breakfast_restaurant","american_restaurant","restaurant","point_of_interest","food","establishment"],"formattedAddress":"No. 214-1號, Kunming St, Wanhua District, Taipei City, Taiwan 108","websiteUri":"https://m.facebook.com/whatdaykitchen/?ref=bookmarks","displayName":{"languageCode":"en","text":"What Day Kitchen"}},"lat":25.040733,"lng":121.5042947},{"place":{"types":["dessert_restaurant","dessert_shop","confectionery","restaurant","point_of_interest","food_store","store","food","establishment"],"formattedAddress":"No. 92號, Sanshui St, Wanhua District, Taipei City, Taiwan 108","websiteUri":"https://www.facebook.com/36RiceCaking/","displayName":{"languageCode":"en","text":"36 Rice Cake Dessert"}},"lat":25.0360536,"lng":121.5005168},{"place":{"types":["chinese_restaurant","restaurant","point_of_interest","food","establishment"],"formattedAddress":"No. 175, Guangzhou St, Wanhua District, Taipei City, Taiwan 108","websiteUri":"https://www.facebook.com/pages/%E8%89%8B%E8%88%BA%E6%9F%B3%E5%B7%9E%E8%9E%BA%E8%9E%84%E7%B2%89/174572085937543","displayName":{"languageCode":"zh-TW","text":"艋舺螺螄粉 桂林米粉"}},"lat":25.0367491,"lng":121.5010704},{"place":{"types":["restaurant","point_of_interest","food","establishment"],"formattedAddress":"No. 190, Wanda Rd, Wanhua District, Taipei City, Taiwan 108","websiteUri":"https://facebook.com/146454185413163/","displayName":{"languageCode":"zh-TW","text":"大味王吃到飽火鍋"}},"lat":25.0276563,"lng":121.5003264},{"place":{"types":["deli","chinese_restaurant","restaurant","point_of_interest","food_store","store","food","establishment"],"formattedAddress":"108, Taiwan, Taipei City, Wanhua District, 和平西路三段166號","websiteUri":"https://www.facebook.com/pages/%E8%90%AC%E8%8F%AF%E9%99%B3%E8%A8%98%E5%B0%88%E6%A5%AD%E8%85%B8%E8%9A%B5%E9%BA%B5%E7%B7%9A/212662762088564","displayName":{"languageCode":"zh-TW","text":"陳記腸蚵專業麵線"}},"lat":25.035157,"lng":121.4982169},{"place":{"types":["restaurant","point_of_interest","food","establishment"],"formattedAddress":"No. 17-2, Huaxi St, Wanhua District, Taipei City, Taiwan 108","websiteUri":"","displayName":{"languageCode":"en","text":"Yuan Fang Guabao"}},"lat":25.0391875,"lng":121.4986875},{"place":{"types":["fast_food_restaurant","brunch_restaurant","hamburger_restaurant","american_restaurant","restaurant","point_of_interest","food","establishment"],"formattedAddress":"No. 215號, Wanda Rd, Wanhua District, Taipei City, Taiwan 108","websiteUri":"https://www.mcdonalds.com/tw/zh-tw.html","displayName":{"languageCode":"en","text":"McDonald's Taipei Wanda 2nd Branch"}},"lat":25.0269354,"lng":121.50067},{"place":{"types":["restaurant","point_of_interest","food","establishment"],"formattedAddress":"No. 4號, Lane 176, Section 3, Heping W Rd, Wanhua District, Taipei City, Taiwan 108","websiteUri":"https://www.facebook.com/profile.php?id=100057195020798\u0026mibextid=ZbWKwL","displayName":{"languageCode":"zh-TW","text":"萬華蘇家肉圓油粿(露店 蘇來傳）"}},"lat":25.0349999,"lng":121.4976927},{"place":{"types":["chinese_restaurant","restaurant","point_of_interest","food","establishment"],"formattedAddress":"No. 2號, Lane 163, Yanping S Rd, Zhongzheng District, Taipei City, Taiwan 100","websiteUri":"https://www.facebook.com/yufang.restaurant/","displayName":{"languageCode":"en","text":"YuFang SiChuan Restaurant"}},"lat":25.0350605,"lng":121.5077466}]