[{"types":"restaurant,point_of_interest,food,establishment","formattedAddress":"231, Taiwan, New Taipei City, Xindian District, Zhongzheng Rd, 244-4號1 樓","websiteUri":"","name":"賴岡山羊肉","lat":24.973311,"lng":121.539621},{"types":"restaurant,point_of_interest,food,establishment","formattedAddress":"No. 67號, Baoqiao Rd, Xindian District, New Taipei City, Taiwan 231","websiteUri":"https://zh-tw.facebook.com/pages/%E5%B0%8F%E6%A8%82%E7%B2%BE%E7%B7%BB%E9%BA%B5%E9%A3%9F%E9%A4%A8/201732783212745","name":"Xiao-Le Noodles","lat":24.975225,"lng":121.545282},{"types":"sushi_restaurant,japanese_restaurant,restaurant,point_of_interest,food,establishment","formattedAddress":"No. 13號, Section 3, Zhongxing Rd, Xindian District, New Taipei City, Taiwan 231","websiteUri":"http://www.sushiro.com.tw/","name":"SUSHIRO Xindian Zhongxing Rd. Branch","lat":24.9788393,"lng":121.5447987},{"types":"breakfast_restaurant,restaurant,point_of_interest,food,establishment","formattedAddress":"No. 438號, Zhongzheng Rd, Xindian District, New Taipei City, Taiwan 231","websiteUri":"","name":"旭達豆漿店","lat":24.9783463,"lng":121.5342777},{"types":"korean_restaurant,restaurant,point_of_interest,food,establishment","formattedAddress":"No. 8號, Alley 2, Lane 1, Ershizhang Rd, Xindian District, New Taipei City, Taiwan 231","websiteUri":"https://www.facebook.com/funfunpot/","name":"FUN鍋子","lat":24.9823553,"lng":121.5403043},{"types":"restaurant,point_of_interest,food,establishment","formattedAddress":"No. 31號, Yonghua St, Xindian District, New Taipei City, Taiwan 231","websiteUri":"https://inline.app/booking/jimmyontheroad/1983","name":"Jimmy on the road 居米先生在路上","lat":24.9763224,"lng":121.5438635},{"types":"restaurant,point_of_interest,food,establishment","formattedAddress":"No. 349號, Section 1, Beixin Rd, Xindian District, New Taipei City, Taiwan 231","websiteUri":"https://www.1997superman.com/","name":"超人鱸魚","lat":24.9691947,"lng":121.541793},{"types":"fast_food_restaurant,brunch_restaurant,hamburger_restaurant,american_restaurant,restaurant,point_of_interest,food,establishment","formattedAddress":"No. 102, Section 2, Beixin Rd, Xindian District, New Taipei City, Taiwan 231","websiteUri":"https://www.mcdonalds.com/tw/zh-tw.html","name":"McDonald's Xindian Beixin Branch","lat":24.9738071,"lng":121.5431776},{"types":"deli,asian_restaurant,chinese_restaurant,restaurant,point_of_interest,food_store,store,food,establishment","formattedAddress":"No. 414號, Zhongzheng Rd, Xindian District, New Taipei City, Taiwan 231","websiteUri":"https://m.facebook.com/pages/category/Diner/%E6%96%B0%E5%BA%97%E5%8D%80-%E9%98%BF%E8%98%AD%E5%A7%8A%E8%96%91%E6%AF%8D%E9%B4%A8-196381633768050/","name":"新店阿蘭姊薑母鴨","lat":24.9778303,"lng":121.5345607},{"types":"seafood_restaurant,chinese_restaurant,restaurant,point_of_interest,food,establishment","formattedAddress":"No. 135號, Sanmin Rd, Xindian District, New Taipei City, Taiwan 231","websiteUri":"http://www.facebook.com/BuZinoDian","name":"不仔的店","lat":24.9723523,"lng":121.5342343},{"types":"chinese_restaurant,restaurant,point_of_interest,food,establishment","formattedAddress":"No. 225號, Section 3, Zhongxing Rd, Xindian District, New Taipei City, Taiwan 231","websiteUri":"","name":"Ahui Beef Restaurant","lat":24.9830597,"lng":121.5430698},{"types":"chinese_restaurant,dessert_restaurant,restaurant,point_of_interest,food,establishment","formattedAddress":"No. 25號, Minquan Rd, Xindian District, New Taipei City, Taiwan 231","websiteUri":"http://www.suhung.com.tw/","name":"Suhang Restaurant — Dapinglin Branch","lat":24.9827988,"lng":121.5410118},{"types":"american_restaurant,restaurant,point_of_interest,food,establishment","formattedAddress":"No. 1-1號, Lane 88, Section 1, Beixin Rd, Xindian District, New Taipei City, Taiwan 231","websiteUri":"https://eatenjoyforever.com/","name":"Eat enjoy","lat":24.9677435,"lng":121.5422183},{"types":"japanese_restaurant,restaurant,point_of_interest,food,establishment","formattedAddress":"No. 145號, Section 3, Beixin Rd, Xindian District, New Taipei City, Taiwan 231","websiteUri":"","name":"饗醬燒烤【新店店】","lat":24.9832373,"lng":121.5411281},{"types":"fast_food_restaurant,brunch_restaurant,hamburger_restaurant,american_restaurant,restaurant,point_of_interest,food,establishment","formattedAddress":"231, Taiwan, New Taipei City, Xindian District, Section 3, Beixin Rd, 51號1-2樓","websiteUri":"https://www.mcdonalds.com/tw/zh-tw.html","name":"McDonald's Xindian Beixin 2","lat":24.9805422,"lng":121.5416675},{"types":"deli,restaurant,point_of_interest,food_store,store,food,establishment","formattedAddress":"No. 52號, Bao'an St, Xindian District, New Taipei City, Taiwan 231","websiteUri":"","name":"Xiao Tong An Noodles","lat":24.9835437,"lng":121.5417811},{"types":"japanese_restaurant,restaurant,point_of_interest,food,establishment","formattedAddress":"231, Taiwan, New Taipei City, Xindian District, Section 2, Beixin Rd, 108號2 樓","websiteUri":"https://www.tokiya.com.tw/","name":"Tokiya Xindian Beixin Restaurant","lat":24.9741336,"lng":121.5431107},{"types":"meal_delivery,chinese_restaurant,meal_takeaway,food_delivery,restaurant,point_of_interest,food,establishment","formattedAddress":"No. 230號, Jianguo Rd, Xindian District, New Taipei City, Taiwan 231","websiteUri":"https://www.facebook.com/kaosiumeikitchen","name":"Kao's Siu Mei Restaurant","lat":24.9815953,"lng":121.5378033},{"types":"japanese_restaurant,restaurant,point_of_interest,food,establishment","formattedAddress":"No. 38號, Minquan Rd, Xindian District, New Taipei City, Taiwan 231","websiteUri":"http://www.chientu.com.tw/","name":"CHIEN TU Xindian Minquan Branch","lat":24.9830652,"lng":121.5406862},{"types":"bar_and_grill,bar,japanese_restaurant,restaurant,point_of_interest,food,establishment","formattedAddress":"231, Taiwan, New Taipei City, Xindian District, Section 3, Zhongxing Rd, 70號, YES!LIFE Xindian Yulong City, 3樓","websiteUri":"https://inline.app/booking/-N4lEgXCbm_NPwc9SFao:inline-live-2/-NfTqsnJ5-cBN9b8T08n","name":"燒肉ChaCha 個人和牛燒肉 新店裕隆城店","lat":24.978061,"lng":121.546478}]