[{"types":"steak_house,restaurant,food,point_of_interest,establishment","formattedAddress":"No. 92號, Jianyi Rd, Zhonghe District, New Taipei City, Taiwan 235","websiteUri":"http://steakmyhome.com.tw/","name":"My Home Steak","lat":25.0009992,"lng":121.4879335},{"types":"sushi_restaurant,japanese_restaurant,restaurant,food,point_of_interest,establishment","formattedAddress":"No. 5號, Qiaohe Rd, Zhonghe District, New Taipei City, Taiwan 235029","websiteUri":"https://www.kurasushi.tw/","name":"Kura Sushi Zhonghe Qiaohe","lat":25.0052783,"lng":121.488465},{"types":"steak_house,restaurant,food,point_of_interest,establishment","formattedAddress":"No. 661號, Bannan Rd, Zhonghe District, New Taipei City, Taiwan 235","websiteUri":"http://www.tasty.com.tw/","name":"TASTy Zhonghe Bannan Branch","lat":25.007849,"lng":121.4839131},{"types":"sushi_restaurant,japanese_restaurant,restaurant,food,point_of_interest,establishment","formattedAddress":"B2, 環球購物中心No. 122號, Section 3, Zhongshan Rd, Zhonghe District, New Taipei City, Taiwan 23546","websiteUri":"http://www.sushiro.com.tw/","name":"Sushiro Global Mall Zhonghe","lat":25.0066724,"lng":121.4747789},{"types":"japanese_restaurant,restaurant,food,point_of_interest,establishment","formattedAddress":"235, Taiwan, New Taipei City, Zhonghe District, Qiaohe Rd, 3號1樓","websiteUri":"https://syabuyo.com.tw/","name":"Syabu-yo Zhonghe Taiwan Science and Technology Plaza","lat":25.0052162,"lng":121.4880738},{"types":"fast_food_restaurant,hamburger_restaurant,brunch_restaurant,american_restaurant,restaurant,food,point_of_interest,establishment","formattedAddress":"235, Taiwan, New Taipei City, Zhonghe District, Section 2, Zhongshan Rd, 583號1樓","websiteUri":"https://www.mcdonalds.com/tw/zh-tw.html","name":"McDonald's Zhonghe Zhongshan","lat":25.0057341,"lng":121.4801992},{"types":"japanese_restaurant,restaurant,food,point_of_interest,establishment","formattedAddress":"No. 36, Section 3, Zhongshan Rd, Zhonghe District, New Taipei City, Taiwan 235","websiteUri":"https://zh-tw.facebook.com/twomenfans/","name":"二男小家料理","lat":25.0060958,"lng":121.4788343},{"types":"wedding_venue,banquet_hall,chinese_restaurant,event_venue,restaurant,food,point_of_interest,establishment","formattedAddress":"23504, Taiwan, New Taipei City, Zhonghe District, Section 2, Zhongshan Rd, 351號B1","websiteUri":"https://www.amazinghall.com.tw/","name":"Crystal Banquet Hall (Zhonghe Hall)","lat":25.0033289,"lng":121.4903588},{"types":"vegetarian_restaurant,vegan_restaurant,restaurant,food,point_of_interest,establishment","formattedAddress":"235, Taiwan, New Taipei City, Zhonghe District, Section 2, Zhongshan Rd, 427號咖啡廳1樓\u00263樓","websiteUri":"http://cdfvlml.com.tw/","name":"崇德發蔬食餐廳.咖啡廳","lat":25.004754,"lng":121.4853582},{"types":"japanese_restaurant,restaurant,food,point_of_interest,establishment","formattedAddress":"No. 803號, Zhongzheng Rd, Zhonghe District, New Taipei City, Taiwan 235","websiteUri":"http://www.chientu.com.tw/","name":"Chien Tu Zhonghe Zhongzhong Branch","lat":25.0014286,"lng":121.4846339},{"types":"restaurant,food,point_of_interest,establishment","formattedAddress":"No. 403號, Yuanshan Rd, Zhonghe District, New Taipei City, Taiwan 235","websiteUri":"","name":"Zhulin Chicken Zhonghe Yuanshan Shop","lat":25.0030322,"lng":121.4810595},{"types":"seafood_restaurant,restaurant,food,point_of_interest,establishment","formattedAddress":"No. 2, Jianyi Rd, Zhonghe District, New Taipei City, Taiwan 235","websiteUri":"https://www.facebook.com/seafood9453la/","name":"Shengmeng Huo Seafood Restaurant","lat":25.0043818,"lng":121.4878154},{"types":"restaurant,food,point_of_interest,establishment","formattedAddress":"220, Taiwan, New Taipei City, Banqiao District, 三民路二段206號","websiteUri":"https://m.facebook.com/xiaolinhotpot/","name":"小林麻辣火鍋","lat":25.0121341,"lng":121.4786605},{"types":"restaurant,food,point_of_interest,establishment","formattedAddress":"235, Taiwan, New Taipei City, Zhonghe District, Section 2, Zhongshan Rd, 351號B1","websiteUri":"https://www.facebook.com/KingofDuckofficial","name":"晶粵軒烤鴨餐廳（中和店）","lat":25.0033289,"lng":121.4903588},{"types":"restaurant,food,point_of_interest,establishment","formattedAddress":"No. 866-6號, Zhongzheng Rd, Zhonghe District, New Taipei City, Taiwan 235","websiteUri":"","name":"遛溜灣親子友善餐廳（不開放帶寵物）旁邊有嘟嘟房好停車，奧客別來","lat":25.0058601,"lng":121.4848198},{"types":"restaurant,food,point_of_interest,establishment","formattedAddress":"235, Taiwan, New Taipei City, Zhonghe District, Section 3, Zhongshan Rd, 122號4樓","websiteUri":"https://xiaofree.com.tw/","name":"小福利麻辣鍋 中和環球店","lat":25.0066724,"lng":121.4747789},{"types":"chinese_restaurant,restaurant,food,point_of_interest,establishment","formattedAddress":"220, Taiwan, New Taipei City, Banqiao District, 三民路二段207號","websiteUri":"https://www.facebook.com/profile.php?id=100087950736028\u0026mibextid=LQQJ4d","name":"稻香園陳記潮汕砂鍋粥板橋三民店","lat":25.0130521,"lng":121.4791309},{"types":"restaurant,food,point_of_interest,establishment","formattedAddress":"No. 311號, Yuanshan Rd, Zhonghe District, New Taipei City, Taiwan 235","websiteUri":"","name":"何家香香麻辣鴛鴦鍋吃到飽","lat":25.0002819,"lng":121.4811888},{"types":"japanese_restaurant,restaurant,food,point_of_interest,establishment","formattedAddress":"No. 391號, Yuanshan Rd, Zhonghe District, New Taipei City, Taiwan 235","websiteUri":"","name":"食尚吃到飽涮涮鍋 中和員山店","lat":25.0027143,"lng":121.4811549},{"types":"restaurant,food,point_of_interest,establishment","formattedAddress":"No. 7號, Lane 839, Zhongzheng Rd, Zhonghe District, New Taipei City, Taiwan 235","websiteUri":"https://www.facebook.com/%E6%8F%9A%E6%97%A5%E5%BC%8F%E6%96%99%E7%90%86%E7%94%9F%E9%AD%9A%E7%89%87%E8%93%8B%E9%A3%AF-318472595012571/","name":"揚日式料理","lat":25.002329,"lng":121.4843334}]