[{"types":"brunch_restaurant,cafeteria,restaurant,point_of_interest,food,establishment","formattedAddress":"242, Taiwan, New Taipei City, Xinzhuang District, Zhongzheng Rd, 1號3樓","websiteUri":"http://www.ikea.com/tw/zh/store/hsin_chuang/restaurant","name":"IKEA Swedish Restaurant Xinzhuang Store","lat":25.0415073,"lng":121.4652713},{"types":"chinese_restaurant,wedding_venue,event_venue,restaurant,point_of_interest,food,establishment","formattedAddress":"No. 67, Section 1, Guangfu Rd, Sanchong District, New Taipei City, Taiwan 241","websiteUri":"http://jenhour.com.tw/","name":"Jen Hour Restaurant","lat":25.0495439,"lng":121.4723366},{"types":"thai_restaurant,restaurant,point_of_interest,food,establishment","formattedAddress":"No. 86號, Huacheng Rd, Xinzhuang District, New Taipei City, Taiwan 242","websiteUri":"","name":"Lotus Thai eateries","lat":25.0438502,"lng":121.4652581},{"types":"steak_house,restaurant,point_of_interest,food,establishment","formattedAddress":"No. 472號, Huacheng Rd, Xinzhuang District, New Taipei City, Taiwan 242","websiteUri":"http://www.noble.com.tw/","name":"Noble Family Steak House","lat":25.0514127,"lng":121.4662149},{"types":"restaurant,point_of_interest,food,establishment","formattedAddress":"No. 253號, Huacheng Rd, Xinzhuang District, New Taipei City, Taiwan 242","websiteUri":"https://m.facebook.com/%E5%85%AD%E6%89%87%E9%96%80%E6%99%82%E5%B0%9A%E6%B9%AF%E9%8D%8B-%E6%96%B0%E8%8E%8A%E5%8C%96%E6%88%90%E5%BA%97-105028357919723/","name":"6owl door Xinzhuang Huacheng Branch","lat":25.0537407,"lng":121.4658701},{"types":"meal_takeaway,restaurant,point_of_interest,food,establishment","formattedAddress":"No. 60之一號, Touqian Rd, Xinzhuang District, New Taipei City, Taiwan 242","websiteUri":"","name":"吳記北平餡餅專賣店","lat":25.0523789,"lng":121.4637509},{"types":"seafood_restaurant,restaurant,point_of_interest,food,establishment","formattedAddress":"No. 133, Xingde Rd, Sanchong District, New Taipei City, Taiwan 241","websiteUri":"http://www.dapaidang.com.tw/shop.htm","name":"大排檔居酒屋（三重店）","lat":25.0530083,"lng":121.4699358},{"types":"deli,restaurant,point_of_interest,food_store,store,food,establishment","formattedAddress":"No. 1號, Section 2, Guangfu Rd, Sanchong District, New Taipei City, Taiwan 241","websiteUri":"","name":"大胖烏醋麵","lat":25.0534531,"lng":121.4723711},{"types":"brunch_restaurant,restaurant,point_of_interest,food,establishment","formattedAddress":"No. 4號, Lane 42, Zhongxing N St, Sanchong District, New Taipei City, Taiwan 241","websiteUri":"https://www.facebook.com/EGGandBUN","name":"EGG BUN Breakfast Sandwich \u0026 Espresso 三重","lat":25.049386,"lng":121.4693665},{"types":"japanese_restaurant,restaurant,point_of_interest,food,establishment","formattedAddress":"No. 654號, Section 5, Chongxin Rd, Sanchong District, New Taipei City, Taiwan 241","websiteUri":"https://www.mo-mo.com.tw/","name":"Mo-Mo-Paradise 重新家樂福牧場","lat":25.0432729,"lng":121.4675175},{"types":"italian_restaurant,restaurant,point_of_interest,food,establishment","formattedAddress":"24158, Taiwan, New Taipei City, Sanchong District, Section 5, Chongxin Rd, 654號B1","websiteUri":"http://www.grazie.com.tw/","name":"義式屋古拉爵 家樂福重新店","lat":25.0432808,"lng":121.4675151},{"types":"restaurant,point_of_interest,food,establishment","formattedAddress":"近捷, 運幸福站, No. 106號, Xingfu E Rd, Xinzhuang District, New Taipei City, Taiwan 242","websiteUri":"https://www.facebook.com/steamseafood/","name":"蒸海精緻鍋物","lat":25.049911,"lng":121.4631804},{"types":"brunch_restaurant,restaurant,point_of_interest,food,establishment","formattedAddress":"No. 132號, Xingfu E Rd, Xinzhuang District, New Taipei City, Taiwan 242","websiteUri":"https://shop.ichefpos.com/store/ejvl6MfR/reserve","name":"Paws Cafe 寵物友善餐廳-新莊人氣早午餐｜網美餐廳|寵物餐廳|簡餐|輕食|餐廳推薦|人氣甜點|咖啡|咖哩| 燉飯| 晚餐 | 貓咪咖啡廳","lat":25.0495239,"lng":121.4626683},{"types":"chinese_restaurant,restaurant,point_of_interest,food,establishment","formattedAddress":"No. 406號, Huacheng Rd, Xinzhuang District, New Taipei City, Taiwan 242","websiteUri":"https://www.facebook.com/%E6%96%B0%E9%B4%A8%E5%BA%92-714347101970687/","name":"新鴨庄便當","lat":25.0507643,"lng":121.466197},{"types":"thai_restaurant,restaurant,point_of_interest,food,establishment","formattedAddress":"No. 571號, Section 5, Chongxin Rd, Sanchong District, New Taipei City, Taiwan 241","websiteUri":"","name":"泰式東北小吃","lat":25.0460482,"lng":121.4701103},{"types":"restaurant,point_of_interest,food,establishment","formattedAddress":"No. 654號, Section 5, Chongxin Rd, Sanchong District, New Taipei City, Taiwan 241","websiteUri":"https://www.12hotpot.com.tw/","name":"12 Hotpot Carrefour Chongxin Branch","lat":25.0432729,"lng":121.4675175},{"types":"restaurant,point_of_interest,food,establishment","formattedAddress":"No. 163號, Huacheng Rd, Xinzhuang District, New Taipei City, Taiwan 242","websiteUri":"https://www.facebook.com/barwayyang/","name":"霸味羊肉爐（無電話預約）","lat":25.049506,"lng":121.4656768},{"types":"bakery,brunch_restaurant,breakfast_restaurant,gift_shop,dessert_shop,confectionery,wholesaler,restaurant,point_of_interest,food_store,store,food,establishment","formattedAddress":"No. 32號, Lane 42, Section 2, Guangfu Rd, Sanchong District, New Taipei City, Taiwan 241","websiteUri":"https://bit.ly/3jyAAY7","name":"Gao\u0026Zou's Bakehouse-scFactoryStore_Bakery","lat":25.0549641,"lng":121.4720125},{"types":"japanese_restaurant,restaurant,point_of_interest,food,establishment","formattedAddress":"241, Taiwan, New Taipei City, Sanchong District, Section 5, Chongxin Rd, 654號1 樓","websiteUri":"https://www.katsuya-taiwan.com/","name":"Katsuya Carrefour Chongxin Restaurant","lat":25.0431845,"lng":121.4678297},{"types":"chinese_restaurant,restaurant,point_of_interest,food,establishment","formattedAddress":"No. 198號, Huacheng Rd, Xinzhuang District, New Taipei City, Taiwan 242","websiteUri":"https://www.facebook.com/%E7%94%B2%E9%BC%8E%E5%B7%9D%E8%8F%9C%E9%A4%A8-277989052266753/","name":"甲鼎川菜館","lat":25.0461595,"lng":121.4658806}]