[{"types":"seafood_restaurant,chinese_restaurant,restaurant,food,point_of_interest,establishment","formattedAddress":"111, Taiwan, Taipei City, Shilin District, Jihe Rd, 130號b1","websiteUri":"http://tainanseafood.com/","name":"Tainan Seafood and Lounge","lat":25.089234,"lng":121.52273},{"types":"restaurant,food,point_of_interest,establishment","formattedAddress":"No. 31號, Xiaodong St, Shilin District, Taipei City, Taiwan 111","websiteUri":"https://www.facebook.com/%E9%A3%9F%E4%BE%86%E9%81%8B%E8%BD%89-167885156593001/","name":"食來運轉","lat":25.0893524,"lng":121.5262045},{"types":"meal_takeaway,restaurant,food,point_of_interest,establishment","formattedAddress":"No. 115號, Jihe Rd, Shilin District, Taipei City, Taiwan 111","websiteUri":"http://www.hotstar.com.tw/TW/Retail/ugC_Retail.asp?hidRetailID=228\u0026#Pagecontent","name":"Hot-Star","lat":25.0897524,"lng":121.5102641},{"types":"restaurant,food,point_of_interest,establishment","formattedAddress":"No. 75-1, Section 4, Chengde Rd, Shilin District, Taipei City, Taiwan 111","websiteUri":"https://www.facebook.com/pages/%E5%AF%8C%E6%A8%82%E5%8F%B0%E5%BC%8F%E6%B6%AE%E6%B6%AE%E9%8D%8B%E5%A3%AB%E6%9E%97%E5%BA%97/174014842641304","name":"富樂臺式涮涮鍋","lat":25.0820057,"lng":121.5234146},{"types":"japanese_restaurant,restaurant,food,point_of_interest,establishment","formattedAddress":"No. 35號, Daxi Rd, Shilin District, Taipei City, Taiwan 11143","websiteUri":"https://www.facebook.com/Hinata4035/","name":"日向洋食","lat":25.0906636,"lng":121.5243921},{"types":"restaurant,food,point_of_interest,establishment","formattedAddress":"No. 78號, Jiantan Rd, Shilin District, Taipei City, Taiwan 111","websiteUri":"https://shop.ichefpos.com/store/D1jx_9H4/ordering","name":"BON MEINGERDA ｜ 手工麵疙瘩（僅現場候位，售完為止）","lat":25.0830176,"lng":121.5208407},{"types":"ramen_restaurant,japanese_restaurant,restaurant,food,point_of_interest,establishment","formattedAddress":"No. 22號, Lane 505, Section 5, Zhongshan N Rd, Shilin District, Taipei City, Taiwan 111","websiteUri":"https://www.facebook.com/kakuregaramen/","name":"Yinjia Ramen Shilin Branch","lat":25.0932052,"lng":121.5271282},{"types":"brunch_restaurant,restaurant,food,point_of_interest,establishment","formattedAddress":"111, Taiwan, Taipei City, Shilin District, Jiantan Rd, 80號1樓","websiteUri":"https://www.facebook.com/himate2021/?locale=zh_TW","name":"HI MATE ! 【15：30 最後供餐】","lat":25.0828378,"lng":121.5206199},{"types":"cafe,coffee_shop,bar,food_store,store,restaurant,food,point_of_interest,establishment","formattedAddress":"111, Taiwan, Taipei City, Shilin District, Jiantan Rd, 1號7樓","websiteUri":"https://acmetaipei.com/zh/pages/place","name":"ACME｜Cafe Bar \u0026 Restaurant","lat":25.0851274,"lng":121.5243662},{"types":"korean_restaurant,restaurant,food,point_of_interest,establishment","formattedAddress":"No. 312號, Wenlin Rd, Shilin District, Taipei City, Taiwan 111","websiteUri":"https://www.facebook.com/jinshuxi2023","name":"金書西餐飲 韓國豬肉湯飯 돼지국밥","lat":25.092148,"lng":121.5262299},{"types":"restaurant,food,point_of_interest,establishment","formattedAddress":"No. 2號, Lane 101, Wenlin Rd, Shilin District, Taipei City, Taiwan 111","websiteUri":"https://www.facebook.com/chickenrc/","name":"雞老闆 桶仔雞 士林夜市店","lat":25.0881435,"lng":121.525947},{"types":"restaurant,food,point_of_interest,establishment","formattedAddress":"111, Taiwan, Taipei City, Shilin District, Wenlin Rd, 173號2F","websiteUri":"","name":"Modern Toilet Theme Restaurant","lat":25.0895914,"lng":121.5268197},{"types":"korean_restaurant,bar_and_grill,bar,restaurant,food,point_of_interest,establishment","formattedAddress":"No. 7號, Dabei Rd, Shilin District, Taipei City, Taiwan 111","websiteUri":"https://www.facebook.com/xinshanbulgogi","name":"新山韓國烤肉","lat":25.0896409,"lng":121.526677},{"types":"restaurant,food,point_of_interest,establishment","formattedAddress":"No. 20號, Lane 505, Section 5, Zhongshan N Rd, Shilin District, Taipei City, Taiwan 111","websiteUri":"https://www.instagram.com/goldensonkoreapasta/","name":"Golden Son Korea Pasta (Shilin)","lat":25.0932344,"lng":121.5272067},{"types":"pub,liquor_store,bar,store,restaurant,food,point_of_interest,establishment","formattedAddress":"No. 152號, Dadong Rd, Shilin District, Taipei City, Taiwan 11162","websiteUri":"https://linktr.ee/odin.shilin","name":"Odin Bistro","lat":25.0923151,"lng":121.5254104},{"types":"bakery,food_store,store,restaurant,food,point_of_interest,establishment","formattedAddress":"No. 22號, Jihe Rd, Shilin District, Taipei City, Taiwan 111","websiteUri":"http://mydiybc.com/","name":"My DIY Bakery Taipei Shilin","lat":25.0832535,"lng":121.5243715},{"types":"chinese_restaurant,restaurant,food,point_of_interest,establishment","formattedAddress":"No. 18, Qiangang St, Shilin District, Taipei City, Taiwan 111","websiteUri":"","name":"王艇長酢醬麵","lat":25.0845755,"lng":121.522504},{"types":"restaurant,food,point_of_interest,establishment","formattedAddress":"No. 140號, Section 4, Chengde Rd, Shilin District, Taipei City, Taiwan 111","websiteUri":"https://www.facebook.com/gooseprofessor/","name":"Goose Professor","lat":25.0844435,"lng":121.523282},{"types":"restaurant,food,point_of_interest,establishment","formattedAddress":"No. 38號, Xiaodong St, Shilin District, Taipei City, Taiwan 111","websiteUri":"","name":"Chung Chia Sheng Jian Bao","lat":25.0894415,"lng":121.5263484},{"types":"restaurant,food,point_of_interest,establishment","formattedAddress":"No. 49, Dadong Rd, Shilin District, Taipei City, Taiwan 111","websiteUri":"","name":"Hai You Pork Ribs","lat":25.089662,"lng":121.525299}]