[{"types":"supermarket,sushi_restaurant,deli,japanese_restaurant,grocery_store,confectionery,food_store,restaurant,food,store,point_of_interest,establishment","formattedAddress":"No. 56號, Section 2, Wuchang St, Wanhua District, Taipei City, Taiwan 108","websiteUri":"https://www.dondondonki.com/tw/","name":"DON DON DONKI | Ximen Store","lat":25.0446257,"lng":121.506883},{"types":"restaurant,food,point_of_interest,establishment","formattedAddress":"No. 8-1號, Emei St, Wanhua District, Taipei City, Taiwan 108","websiteUri":"https://aychungflourricenoodle.shop/","name":"Ay-Chung Flour-Rice Noodle","lat":25.0433092,"lng":121.5076117},{"types":"restaurant,food,point_of_interest,establishment","formattedAddress":"No. 67-69, Luoyang St, Wanhua District, Taipei City, Taiwan 108","websiteUri":"https://facebook.com/pages/%E5%AF%8C%E5%AE%8F%E7%89%9B%E8%82%89%E9%BA%B5-%E5%8E%9F%E5%BB%BA%E5%AE%8F%E7%89%9B%E8%82%89%E9%BA%B5/519285271483011","name":"Fuhong Beef Noodles","lat":25.0476045,"lng":121.5077276},{"types":"bowling_alley,sports_complex,restaurant,food,sports_activity_location,point_of_interest,establishment","formattedAddress":"No. 83號, Section 2, Yanping N Rd, Datong District, Taipei City, Taiwan 103","websiteUri":"https://www.newcbparty.com/","name":"星聚點KTV台北旗艦館+星聚點保齡球館","lat":25.0561412,"lng":121.5117346},{"types":"hotel,wedding_venue,chinese_restaurant,event_venue,lodging,restaurant,food,point_of_interest,establishment","formattedAddress":"100, Taiwan, Taipei City, Zhongzheng District, 忠孝西路一段43號","websiteUri":"http://www.cosmos-hotel.com.tw/","name":"Cosmos Hotel Taipei","lat":25.0463736,"lng":121.5183769},{"types":"restaurant,food,point_of_interest,establishment","formattedAddress":"No. 17號, Lane 220, Chang'an W Rd, Datong District, Taipei City, Taiwan 103","websiteUri":"https://taiwanfjh.waca.ec/page/6143","name":"Dadaocheng Braised Pork Rice","lat":25.050962,"lng":121.5146509},{"types":"chinese_restaurant,restaurant,food,point_of_interest,establishment","formattedAddress":"1樓, No. 88號, Section 1, Zhonghua Rd, Wanhua District, Taipei City, Taiwan 108","websiteUri":"https://www.diaominasia.com/","name":"Diao Min Asia Sauerkraut Fish Ximen Zhonghua Branch","lat":25.0450651,"lng":121.50852},{"types":"deli,chinese_restaurant,food_store,restaurant,food,store,point_of_interest,establishment","formattedAddress":"108, Taiwan, Taipei City, Wanhua District, 漢中街32巷1號","websiteUri":"","name":"Tian Tian Li Delicacies","lat":25.0451719,"lng":121.5076227},{"types":"restaurant,food,point_of_interest,establishment","formattedAddress":"No. 2, Lane 14, Section 1, Kaifeng St, Zhongzheng District, Taipei City, Taiwan 100","websiteUri":"https://www.facebook.com/114637975312065/","name":"Liu Shandong Beef Noodles","lat":25.0457149,"lng":121.5137602},{"types":"breakfast_restaurant,restaurant,food,store,point_of_interest,establishment","formattedAddress":"No. 30號, Section 2, Hankou St, Wanhua District, Taipei City, Taiwan 108","websiteUri":"","name":"Yong He Soy Milk","lat":25.045411,"lng":121.507489},{"types":"hotel,night_club,bar,lodging,restaurant,food,point_of_interest,establishment","formattedAddress":"No. 77, Section 2, Wuchang St, Wanhua District, Taipei City, Taiwan 10843","websiteUri":"https://www.amba-hotels.com/tc/ximending/","name":"amba Taipei Ximending","lat":25.0451617,"lng":121.5055717},{"types":"restaurant,food,point_of_interest,establishment","formattedAddress":"No. 41號, Neijiang St, Wanhua District, Taipei City, Taiwan 108","websiteUri":"https://www.facebook.com/simonnoodleshop/","name":"Ximen Noodle","lat":25.041694,"lng":121.505581},{"types":"restaurant,food,point_of_interest,establishment","formattedAddress":"10844, Taiwan, Taipei City, Wanhua District, Chengdu Rd, 81號B1","websiteUri":"https://inline.app/booking/-KO9-zyZTRpTH7LNAe99/-NvFDHdbyHM7P2vbgoDP?language=zh-tw","name":"詹記麻辣火鍋-西門大世界","lat":25.0431071,"lng":121.505162},{"types":"restaurant,food,point_of_interest,establishment","formattedAddress":"108, Taiwan, Taipei City, Wanhua District, Xining Rd, 157號2f","websiteUri":"https://www.mala.com.tw/Home/BrandIndex?verificationCode=5F3863B104D33FAF3A27B2A7F4E7183D","name":"Mala Hot Pot Ximen Branch","lat":25.0433708,"lng":121.5062369},{"types":"fast_food_restaurant,hamburger_restaurant,brunch_restaurant,american_restaurant,restaurant,food,point_of_interest,establishment","formattedAddress":"之4, No. 92號, Kunming St, Wanhua District, Taipei City, Taiwan 108","websiteUri":"https://www.mcdonalds.com/tw/zh-tw.html","name":"McDonald's Kunming Branch","lat":25.0448326,"lng":121.5052146},{"types":"japanese_restaurant,restaurant,food,point_of_interest,establishment","formattedAddress":"108, Taiwan, Taipei City, Wanhua District, Emei St, 37號4樓","websiteUri":"https://www.powerofmeat.com.tw/","name":"Power of Meat Ximen Emei Branch","lat":25.0435587,"lng":121.5071583},{"types":"restaurant,food,point_of_interest,establishment","formattedAddress":"103, Taiwan, Taipei City, Datong District, Section 1, Chengde Rd, 1號4 樓","websiteUri":"https://inline.app/booking/-LamXb5SAQN7JcJfyRKi:inline-live-2a466/-LamXbrHgLYzPCKRO3QD?language=zh-tw","name":"HaiDiLao Q Square Branch","lat":25.0496268,"lng":121.5169766},{"types":"sushi_restaurant,japanese_restaurant,restaurant,food,point_of_interest,establishment","formattedAddress":"100, Taiwan, Taipei City, Zhongzheng District, Section 1, Zhonghua Rd, 41號1樓","websiteUri":"http://www.sushiro.com.tw/","name":"SUSHIRO Taipei Zhonghua Restaurant","lat":25.0449144,"lng":121.5095061},{"types":"chinese_restaurant,restaurant,food,point_of_interest,establishment","formattedAddress":"108, Taiwan, Taipei City, Wanhua District, Lane 25, Kangding Rd, 42之一號1樓","websiteUri":"https://zh-tw.facebook.com/%E7%9C%9F%E5%B7%9D%E5%91%B3-213513902010751/","name":"真川味1店","lat":25.0435427,"lng":121.5046841},{"types":"fast_food_restaurant,restaurant,food,point_of_interest,establishment","formattedAddress":"100, Taiwan, Taipei City, Zhongzheng District, Xuchang St, 30號1樓","websiteUri":"https://popeyes.com.tw/","name":"Popeyes Chicken","lat":25.0454166,"lng":121.5158347}]