[{"types":"hotel,lodging,restaurant,food,point_of_interest,establishment","formattedAddress":"No. 255, Section 3, Nanjing E Rd, Songshan District, Taipei City, Taiwan 105","websiteUri":"http://www.brotherhotel.com.tw/","name":"Brother Hotel","lat":25.0520507,"lng":121.5445961},{"types":"restaurant,food,point_of_interest,establishment","formattedAddress":"105, Taiwan, Taipei City, Songshan District, Qingcheng St, 1號3F","websiteUri":"https://inline.app/booking/-LamXb5SAQN7JcJfyRKi:inline-live-2a466/-LaoGLzfFssLTxPqiY2N?language=zh-tw","name":"Hai Di Lao Qingcheng Branch","lat":25.0528006,"lng":121.544604},{"types":"restaurant,food,point_of_interest,establishment","formattedAddress":"No. 322號, Section 2, Bade Rd, Zhongshan District, Taipei City, Taiwan 104","websiteUri":"","name":"Lin Dong Fang Beef Noodles","lat":25.0472361,"lng":121.5429923},{"types":"restaurant,cafeteria,brunch_restaurant,food,point_of_interest,establishment","formattedAddress":"105, Taiwan, Taipei City, Songshan District, DunHua N Rd, 100號B1","websiteUri":"https://www.ikea.com.tw/zh/ikea-food/restaurant","name":"IKEA 瑞典餐廳 台北城市店 小巨蛋","lat":25.0523798,"lng":121.5484741},{"types":"bar_and_grill,cafeteria,bar,restaurant,food,point_of_interest,establishment","formattedAddress":"104, Taiwan, Taipei City, Zhongshan District, SongJiang Rd, 152號3樓","websiteUri":"https://www.facebook.com/%E5%A4%A7%E6%88%88%E5%A3%81%E8%92%99%E5%8F%A4%E7%83%A4%E8%82%89-112839143771439/","name":"Da Gobi Mongolian BBQ","lat":25.0542965,"lng":121.5328522},{"types":"vegetarian_restaurant,restaurant,food,point_of_interest,establishment","formattedAddress":"No. 128號, SongJiang Rd, Zhongshan District, Taipei City, Taiwan 104","websiteUri":"https://www.ysvege.com/","name":"Yang Shin Vegetarian Restaurant","lat":25.0527453,"lng":121.5327565},{"types":"vegetarian_restaurant,restaurant,food,point_of_interest,establishment","formattedAddress":"105, Taiwan, Taipei City, Songshan District, Section 3, Nanjing E Rd, 275號2樓","websiteUri":"https://www.facebook.com/veggienius21/","name":"Veggienius - Taipei Branch","lat":25.0520392,"lng":121.5455169},{"types":"hotel,lodging,restaurant,food,point_of_interest,establishment","formattedAddress":"No. 8號, Section 3, Nanjing E Rd, Zhongshan District, Taipei City, Taiwan 104","websiteUri":"http://grandnanjing.greenworldhotels.com/","name":"Green World Hotel Grand Nanjing","lat":25.0517484,"lng":121.5373432},{"types":"restaurant,food,point_of_interest,establishment","formattedAddress":"No. 81號, ChangAn East Rd Section 2, Zhongshan District, Taipei City, Taiwan 10491","websiteUri":"","name":"萬客什鍋 長安東店","lat":25.0485289,"lng":121.5344669},{"types":"restaurant,meal_delivery,food_delivery,park,food,point_of_interest,establishment","formattedAddress":"No. 218號, DunHua N Rd, Songshan District, Taipei City, Taiwan 105","websiteUri":"https://inline.app/booking/-LMrceh80alSnzoyoC2c:inline-live-2a466/-LMrcei6xWvUdqI2052q?language=zh-tw","name":"Meowvelous Inc.","lat":25.058508,"lng":121.548769},{"types":"hotel,lodging,restaurant,food,point_of_interest,establishment","formattedAddress":"No. 7號, Section 2, Jianguo N Rd, Zhongshan District, Taipei City, Taiwan 10491","websiteUri":"https://www.hcpt.com.tw/","name":"Hamp Court Palace Taipei","lat":25.0527114,"lng":121.5372562},{"types":"chinese_restaurant,meal_delivery,food_delivery,meal_takeaway,restaurant,food,point_of_interest,establishment","formattedAddress":"No. 24號, Lane 256, Section 3, Nanjing E Rd, Songshan District, Taipei City, Taiwan 10550","websiteUri":"http://liyuan-tangbao.blogspot.tw/","name":"Li Yuan","lat":25.0503772,"lng":121.5447948},{"types":"italian_restaurant,brunch_restaurant,restaurant,food,point_of_interest,establishment","formattedAddress":"No. 7號, Lane 155, Dunhua N Rd, Songshan District, Taipei City, Taiwan 10549","websiteUri":"https://m.facebook.com/%E9%9D%92%E6%B2%90%E5%88%9D%E9%A3%9F-116158869067985/","name":"青沐（敦北店）","lat":25.0541535,"lng":121.5502225},{"types":"sushi_restaurant,japanese_restaurant,restaurant,food,point_of_interest,establishment","formattedAddress":"10491, Taiwan, Taipei City, Zhongshan District, Section 2, Nanjing E Rd, 101號B1F","websiteUri":"https://kurasushi.tw/shops","name":"KURA SUSHI Songjiang Nanjing Branch","lat":25.0522172,"lng":121.532589},{"types":"chinese_restaurant,restaurant,food,point_of_interest,establishment","formattedAddress":"No. 40號, Xing'an St, Zhongshan District, Taipei City, Taiwan 10479","websiteUri":"https://www.instagram.com/glybistro/","name":"猓玀苑","lat":25.0560382,"lng":121.5387892},{"types":"sushi_restaurant,japanese_restaurant,restaurant,food,point_of_interest,establishment","formattedAddress":"10491, Taiwan, Taipei City, Zhongshan District, SongJiang Rd, 61-1號2樓","websiteUri":"http://www.sushiro.com.tw/","name":"SUSHIRO Songjiang Changan Branch","lat":25.0485793,"lng":121.5333602},{"types":"restaurant,food,point_of_interest,establishment","formattedAddress":"10491, Taiwan, Taipei City, Zhongshan District, Section 2, Nanjing E Rd, 178號B1, No","websiteUri":"https://rollingthai.tw/","name":"Rolling Thai","lat":25.0518054,"lng":121.5350793},{"types":"restaurant,food,point_of_interest,establishment","formattedAddress":"No. 20號, Section 2 Nanjing East Rd Lane 115, Zhongshan District, Taipei City, Taiwan 10491","websiteUri":"","name":"Fu Ba Wang Pork Restaurant","lat":25.0533223,"lng":121.5335787},{"types":"restaurant,food,point_of_interest,establishment","formattedAddress":"No. 129-4, SongJiang Rd, Zhongshan District, Taipei City, Taiwan 10491","websiteUri":"https://inline.app/booking/-LDKPhTT6bNhwjRVHpC2?language=zh-tw\u0026fbclid=IwAR39ynHxUYIhofgXcYEJIKo5fn5Mza9gf8eBEV1pZ_IbAIMdn3bb3yAbigc","name":"辛殿麻辣鍋｜松江店","lat":25.0539154,"lng":121.5332705},{"types":"hotel,chinese_restaurant,lodging,restaurant,food,point_of_interest,establishment","formattedAddress":"No. 63號, SongJiang Rd, Zhongshan District, Taipei City, Taiwan 10455","websiteUri":"https://www.evergreen-hotels.com/branch2/taipei","name":"Evergreen Laurel Hotel Taipei","lat":25.0488076,"lng":121.5331945}]