[{"types":"buffet_restaurant,restaurant,food,point_of_interest,establishment","formattedAddress":"115, Taiwan, Taipei City, Nangang District, Jingmao 1st Rd, 168號2樓","websiteUri":"https://www.hilai-foods.com/brand-content/41","name":"ISLAND BUFFET RESTAURANT","lat":25.0580491,"lng":121.6193417},{"types":"chinese_restaurant,restaurant,food,point_of_interest,establishment","formattedAddress":"No. 201, Section 1, Nangang Rd, Nangang District, Taipei City, Taiwan 115","websiteUri":"https://www.facebook.com/pages/%E5%8C%97%E5%A4%A7%E8%8D%92/189047234456893","name":"Nangang Beidahuang Dumpling Shop","lat":25.055031,"lng":121.6117632},{"types":"barbecue_restaurant,restaurant,food,point_of_interest,establishment","formattedAddress":"No. 255號, Section 1, Nangang Rd, Nangang District, Taipei City, Taiwan 115","websiteUri":"http://bogartsbbq.com/","name":"Bogart's Smokehouse Taipei (美式木柴煙燻屋)","lat":25.0547954,"lng":121.6101432},{"types":"wedding_venue,banquet_hall,event_venue,restaurant,food,point_of_interest,establishment","formattedAddress":"115, Taiwan, Taipei City, Nangang District, Jingmao 2nd Rd, 166號, CTBC Financial Park, 3樓","websiteUri":"http://www.glb.com.tw/","name":"Grande Luxe Banquet","lat":25.0589422,"lng":121.6154442},{"types":"asian_restaurant,chinese_restaurant,restaurant,food,point_of_interest,establishment","formattedAddress":"115, Taiwan, Taipei City, Nangang District, Jingmao 2nd Rd, 166號A棟 CTBC Financial Park, 1樓","websiteUri":"https://www.shinyeh.com.tw/content/zh/brand/Index.aspx?BrandId=3","name":"Shin Yeh Shiao Ju (Nangang)","lat":25.0589422,"lng":121.6154442},{"types":"japanese_restaurant,restaurant,food,point_of_interest,establishment","formattedAddress":"No. 88, Section 1, Yanjiuyuan Rd, Nangang District, Taipei City, Taiwan 115","websiteUri":"https://www.facebook.com/csjbcw88/","name":"板前屋炭烤鰻魚飯","lat":25.0524801,"lng":121.6159664},{"types":"pet_store,food_store,store,restaurant,food,point_of_interest,establishment","formattedAddress":"115, Taiwan, Taipei City, Nangang District, Section 1, Yanjiuyuan Rd, 29號2樓","websiteUri":"https://www.facebook.com/profile.php?id=100083755670685\u0026mibextid=LQQJ4d","name":"悠悠龍貓咖啡 UU Chinchilla Cafe","lat":25.0538004,"lng":121.6165655},{"types":"mediterranean_restaurant,brunch_restaurant,restaurant,food,point_of_interest,establishment","formattedAddress":"115, Taiwan, Taipei City, Nangang District, Jingmao 2nd Rd, 186-1號C棟1樓","websiteUri":"https://bit.ly/2TnTXdR","name":"gonnaEAT 南港店","lat":25.0585864,"lng":121.6148449},{"types":"restaurant,food,point_of_interest,establishment","formattedAddress":"No. 117號, Section 1, Yanjiuyuan Rd, Nangang District, Taipei City, Taiwan 115","websiteUri":"https://www.instagram.com/p/C7Gp8m9hTgQ/?hl=zh-tw\u0026img_index=1","name":"Gugugulu Hot Pot","lat":25.0515,"lng":121.616116},{"types":"fast_food_restaurant,hamburger_restaurant,brunch_restaurant,american_restaurant,restaurant,food,point_of_interest,establishment","formattedAddress":"No. 99號, Section 1, Yanjiuyuan Rd, Nangang District, Taipei City, Taiwan 115","websiteUri":"https://www.mcdonalds.com/tw/zh-tw.html","name":"McDonald's Taipei Academia Road","lat":25.0522671,"lng":121.6163834},{"types":"chinese_restaurant,restaurant,food,point_of_interest,establishment","formattedAddress":"115, Taiwan, Taipei City, Nangang District, Jingmao 2nd Rd, 66號2 樓","websiteUri":"http://www.xianlaoman.com.tw/","name":"餡老滿 南港店","lat":25.057195,"lng":121.6161399},{"types":"american_restaurant,brunch_restaurant,restaurant,food,point_of_interest,establishment","formattedAddress":"115, Taiwan, Taipei City, Nangang District, Jingmao 2nd Rd, 166號A棟2樓","websiteUri":"http://www.thediner.com.tw/","name":"the Diner 樂子南港店","lat":25.0585084,"lng":121.6159507},{"types":"japanese_restaurant,restaurant,food,point_of_interest,establishment","formattedAddress":"No. 111, Section 1, Nangang Rd, Nangang District, Taipei City, Taiwan 115","websiteUri":"https://www.facebook.com/549samurai?fref=ts","name":"武侍酒 日式居酒屋","lat":25.0550773,"lng":121.6145615},{"types":"japanese_restaurant,restaurant,food,point_of_interest,establishment","formattedAddress":"115, Taiwan, Taipei City, Nangang District, Jingmao 2nd Rd, 188-1號2樓","websiteUri":"https://syabuyo.com.tw/index.php","name":"Syabu-yo Nangang CTBC Financial Park","lat":25.0588739,"lng":121.614672},{"types":"italian_restaurant,restaurant,food,point_of_interest,establishment","formattedAddress":"115, Taiwan, Taipei City, Nangang District, Section 8, Civic Blvd, 360號1樓","websiteUri":"https://lin.ee/zmvzkDK","name":"Crazy Cart Cafe甩尾卡丁車主題式餐廳(將於四月前結束營運)","lat":25.0531365,"lng":121.6083845},{"types":"chinese_restaurant,restaurant,food,point_of_interest,establishment","formattedAddress":"115, Taiwan, Taipei City, Nangang District, Jingmao 1st Rd, 168號3F","websiteUri":"https://www.hilai-foods.com/brand-content/40","name":"The Orient","lat":25.0579353,"lng":121.6193487},{"types":"fast_food_restaurant,hamburger_restaurant,brunch_restaurant,american_restaurant,restaurant,food,point_of_interest,establishment","formattedAddress":"115, Taiwan, Taipei City, Nangang District, Jingmao 2nd Rd, 188-1號1 樓","websiteUri":"https://www.mcdonalds.com/tw/zh-tw.html","name":"McDonald's CTBC Financial Park","lat":25.058845,"lng":121.61526},{"types":"restaurant,food,point_of_interest,establishment","formattedAddress":"No. 271, Section 1, Nangang Rd, Nangang District, Taipei City, Taiwan 115","websiteUri":"https://www.nland.com.tw/","name":"Neverland Noodle Bar","lat":25.0545026,"lng":121.6087612},{"types":"restaurant,bakery,food_store,store,food,point_of_interest,establishment","formattedAddress":"No. 265號, Section 1, Nangang Rd, Nangang District, Taipei City, Taiwan 115","websiteUri":"https://www.nland.com.tw/","name":"Neverland LITE","lat":25.0544023,"lng":121.6089439},{"types":"asian_restaurant,restaurant,food,point_of_interest,establishment","formattedAddress":"115, Taiwan, Taipei City, Nangang District, Jingmao 2nd Rd, 166號A棟 CTBC Financial Park, 1樓","websiteUri":"https://www.shinyeh.com.tw/content/zh/brand/Index.aspx?BrandId=7","name":"PappaRich金爸爸-南港中信店","lat":25.0589422,"lng":121.6154442}]