[{"types":"deli,food_store,store,restaurant,food,point_of_interest,establishment","formattedAddress":"No. 40號, Daren St, Sanchong District, New Taipei City, Taiwan 241","websiteUri":"https://m.facebook.com/pages/%E4%BB%8A%E5%A4%A7%E6%BB%B7%E8%82%89%E9%A3%AF/188468101171943","name":"Jin Da Braised Pork Rice","lat":25.0644884,"lng":121.4916365},{"types":"deli,food_store,store,restaurant,food,point_of_interest,establishment","formattedAddress":"No. 27, Datong N Rd, Sanchong District, New Taipei City, Taiwan 241","websiteUri":"https://m.facebook.com/dianxiaoerr/","name":"店小二魯肉飯","lat":25.0626245,"lng":121.4955997},{"types":"restaurant,food,point_of_interest,establishment","formattedAddress":"No. 38號, Zhengyi N Rd, Sanchong District, New Taipei City, Taiwan 241","websiteUri":"https://www.5dengjiang.com.tw/home","name":"五燈獎豬腳滷肉飯（正義北路店）","lat":25.0634636,"lng":121.4973489},{"types":"deli,food_store,store,restaurant,food,point_of_interest,establishment","formattedAddress":"No. 106號, Anxi St, Datong District, Taipei City, Taiwan 103","websiteUri":"https://www.facebook.com/noodleyeh/","name":"Mai Mien Yen Tsai","lat":25.0610909,"lng":121.5098067},{"types":"japanese_restaurant,restaurant,food,point_of_interest,establishment","formattedAddress":"241, Taiwan, New Taipei City, Sanchong District, Section 2, Chongxin Rd, 100號1樓","websiteUri":"https://www.jhujian.com.tw/yakiniku_smile/tw","name":"Yakiniku Smile New Taipei Sanchong Branch","lat":25.0616548,"lng":121.4968455},{"types":"gift_shop,food_store,store,restaurant,food,point_of_interest,establishment","formattedAddress":"No. 311號, Section 1, Dihua St, Datong District, Taipei City, Taiwan 103","websiteUri":"https://jiang-ji.com/","name":"Chiang Ji Hua Long","lat":25.0621447,"lng":121.5093827},{"types":"restaurant,food,point_of_interest,establishment","formattedAddress":"No. 329號, Section 1, Dihua St, Datong District, Taipei City, Taiwan 103","websiteUri":"https://www.rice1923.com/","name":"Rice \u0026 Shine Restaurant","lat":25.0624956,"lng":121.5093333},{"types":"vegan_restaurant,vegetarian_restaurant,restaurant,food,point_of_interest,establishment","formattedAddress":"10343, Taiwan, Taipei City, Datong District, Section 1, Huanhe N Rd, 431號一樓","websiteUri":"https://www.facebook.com/mukuchi2019/","name":"無口小廚 Mukuchi Kitchen \u0026 Bar","lat":25.0622259,"lng":121.5087786},{"types":"restaurant,food,point_of_interest,establishment","formattedAddress":"No. 30號, Lane 86, Zhengyi S Rd, Sanchong District, New Taipei City, Taiwan 241","websiteUri":"https://www.wumamii.com.tw/fan/00597dd5de.html","name":"Menqian Yin Wei Beef Noodle Restaurant","lat":25.0580566,"lng":121.499839},{"types":"restaurant,food,point_of_interest,establishment","formattedAddress":"No. 223號, Guangxing St, Sanchong District, New Taipei City, Taiwan 241","websiteUri":"","name":"光興腿庫","lat":25.0595255,"lng":121.4942923},{"types":"restaurant,food,point_of_interest,establishment","formattedAddress":"No. 2-1號, Zhengyi S Rd, Sanchong District, New Taipei City, Taiwan 241","websiteUri":"https://zh-cn.facebook.com/pages/%E6%97%BA%E8%A7%92%E8%BF%B7%E4%BD%A0%E7%9F%B3%E9%A0%AD%E7%81%AB%E9%8D%8B/121118437962115","name":"Wang Jiao Hot Stone Pot","lat":25.06199,"lng":121.4980455},{"types":"restaurant,food,point_of_interest,establishment","formattedAddress":"No. 119號, Section 1, Ziqiang Rd, Sanchong District, New Taipei City, Taiwan 241","websiteUri":"http://5dengjiang.com.tw/","name":"五燈獎","lat":25.0665224,"lng":121.4954516},{"types":"restaurant,food,point_of_interest,establishment","formattedAddress":"No. 170, Section 1, Ziqiang Rd, Sanchong District, New Taipei City, Taiwan 241","websiteUri":"https://www.facebook.com/nightleaf170/","name":"夜葉食堂三重店","lat":25.0662349,"lng":121.4952782},{"types":"restaurant,food,point_of_interest,establishment","formattedAddress":"241, Taiwan, New Taipei City, Sanchong District, Section 2, Chongxin Rd, 79號1樓","websiteUri":"https://www.twfondueretro.com/","name":"狂一鍋－三重重新店－鹹香湯頭專門店","lat":25.0619308,"lng":121.4963284},{"types":"restaurant,food,point_of_interest,establishment","formattedAddress":"No. 92號, Section 2, Chongxin Rd, Sanchong District, New Taipei City, Taiwan 241","websiteUri":"https://www.jhujian.com.tw/","name":"築間幸福鍋物 新北三重店","lat":25.0617861,"lng":121.4970844},{"types":"fast_food_restaurant,hamburger_restaurant,brunch_restaurant,american_restaurant,restaurant,food,point_of_interest,establishment","formattedAddress":"No. 15號, Zhengyi N Rd, Sanchong District, New Taipei City, Taiwan 241","websiteUri":"https://www.mcdonalds.com/tw/zh-tw.html","name":"McDonald's Sanchong Zhengyi","lat":25.0629782,"lng":121.4978767},{"types":"vegetarian_restaurant,japanese_restaurant,food_store,store,restaurant,food,point_of_interest,establishment","formattedAddress":"No. 358之1號, Section 1, Dihua St, Datong District, Taipei City, Taiwan 103","websiteUri":"https://lin.ee/5CNEjAK","name":"無所洋食 SyoSyoHouBou","lat":25.0539972,"lng":121.5103037},{"types":"restaurant,food,point_of_interest,establishment","formattedAddress":"No. 128號, Dazhi St, Sanchong District, New Taipei City, Taiwan 241","websiteUri":"https://www.facebook.com/profile.php?id=61558336564272","name":"順興集團 牛肉麵專賣店 /三重美食/三重餐廳/三重小吃/手沖牛肉麵/高cp值/豆花.仙草 吃到飽/宵夜美食/宵夜","lat":25.0672631,"lng":121.4927966},{"types":"restaurant,food,point_of_interest,establishment","formattedAddress":"No. 73號, Zhengyi N Rd, Sanchong District, New Taipei City, Taiwan 241","websiteUri":"","name":"風火山林","lat":25.0648205,"lng":121.4972706},{"types":"restaurant,food,point_of_interest,establishment","formattedAddress":"No. 72, Wanquan St, Sanchong District, New Taipei City, Taiwan 241","websiteUri":"http://www.yong-jin.com.tw/","name":"永晉藥膳坊《預約制》","lat":25.0701206,"lng":121.5013482}]