[{"types":"breakfast_restaurant,restaurant,food,point_of_interest,establishment","formattedAddress":"100, Taiwan, Taipei City, Zhongzheng District, Section 1, Zhongxiao E Rd, 108號2樓","websiteUri":"https://www.facebook.com/pages/%E8%8F%AF%E5%B1%B1%E5%B8%82%E5%A0%B4-%E9%98%9C%E6%9D%AD%E8%B1%86%E6%BC%BF/154088941341874","name":"Fuhang Soy Milk","lat":25.043898,"lng":121.524815},{"types":"restaurant,food,point_of_interest,establishment","formattedAddress":"No. 8-1號, Emei St, Wanhua District, Taipei City, Taiwan 108","websiteUri":"https://aychungflourricenoodle.shop/","name":"Ay-Chung Flour-Rice Noodle","lat":25.0433092,"lng":121.5076117},{"types":"supermarket,sushi_restaurant,deli,confectionery,japanese_restaurant,grocery_store,food_store,store,restaurant,food,point_of_interest,establishment","formattedAddress":"No. 56號, Section 2, Wuchang St, Wanhua District, Taipei City, Taiwan 108","websiteUri":"https://www.dondondonki.com/tw/","name":"DON DON DONKI | Ximen Store","lat":25.0446257,"lng":121.506883},{"types":"hotel,wedding_venue,chinese_restaurant,event_venue,lodging,restaurant,food,point_of_interest,establishment","formattedAddress":"100, Taiwan, Taipei City, Zhongzheng District, 忠孝西路一段43號","websiteUri":"http://www.cosmos-hotel.com.tw/","name":"Cosmos Hotel Taipei","lat":25.0463736,"lng":121.5183769},{"types":"chinese_restaurant,restaurant,food,point_of_interest,establishment","formattedAddress":"1樓, No. 88號, Section 1, Zhonghua Rd, Wanhua District, Taipei City, Taiwan 108","websiteUri":"https://www.diaominasia.com/","name":"Diao Min Asia Sauerkraut Fish Ximen Zhonghua Branch","lat":25.0450651,"lng":121.50852},{"types":"restaurant,food,point_of_interest,establishment","formattedAddress":"No. 2, Lane 14, Section 1, Kaifeng St, Zhongzheng District, Taipei City, Taiwan 100","websiteUri":"https://www.facebook.com/114637975312065/","name":"Liu Shandong Beef Noodles","lat":25.0457149,"lng":121.5137602},{"types":"deli,chinese_restaurant,food_store,store,restaurant,food,point_of_interest,establishment","formattedAddress":"108, Taiwan, Taipei City, Wanhua District, 漢中街32巷1號","websiteUri":"","name":"Tian Tian Li Delicacies","lat":25.0451719,"lng":121.5076227},{"types":"breakfast_restaurant,store,restaurant,food,point_of_interest,establishment","formattedAddress":"No. 30號, Section 2, Hankou St, Wanhua District, Taipei City, Taiwan 108","websiteUri":"","name":"Yong He Soy Milk","lat":25.045411,"lng":121.507489},{"types":"restaurant,meal_delivery,food_delivery,chinese_restaurant,food,point_of_interest,establishment","formattedAddress":"100, Taiwan, Taipei City, Zhongzheng District, Section 1, Jinan Rd, 7號1樓","websiteUri":"https://www.moonmoonfood.com/","name":"Moon Moon Food Jinan Branch","lat":25.0427329,"lng":121.5219127},{"types":"restaurant,food,point_of_interest,establishment","formattedAddress":"108, Taiwan, Taipei City, Wanhua District, Xining Rd, 157號2f","websiteUri":"https://www.mala.com.tw/Home/BrandIndex?verificationCode=5F3863B104D33FAF3A27B2A7F4E7183D","name":"Mala Hot Pot Ximen Branch","lat":25.0433708,"lng":121.5062369},{"types":"japanese_restaurant,restaurant,food,point_of_interest,establishment","formattedAddress":"108, Taiwan, Taipei City, Wanhua District, Emei St, 37號4樓","websiteUri":"https://www.powerofmeat.com.tw/","name":"Power of Meat Ximen Emei Branch","lat":25.0435587,"lng":121.5071583},{"types":"sushi_restaurant,japanese_restaurant,restaurant,food,point_of_interest,establishment","formattedAddress":"100, Taiwan, Taipei City, Zhongzheng District, Section 1, Zhonghua Rd, 41號1樓","websiteUri":"http://www.sushiro.com.tw/","name":"SUSHIRO Taipei Zhonghua Restaurant","lat":25.0449144,"lng":121.5095061},{"types":"fast_food_restaurant,restaurant,food,point_of_interest,establishment","formattedAddress":"100, Taiwan, Taipei City, Zhongzheng District, Xuchang St, 30號1樓","websiteUri":"https://popeyes.com.tw/","name":"Popeyes Chicken","lat":25.0454166,"lng":121.5158347},{"types":"restaurant,food,point_of_interest,establishment","formattedAddress":"103, Taiwan, Taipei City, Datong District, Section 1, Chengde Rd, 1號4 樓","websiteUri":"https://inline.app/booking/-LamXb5SAQN7JcJfyRKi:inline-live-2a466/-LamXbrHgLYzPCKRO3QD?language=zh-tw","name":"HaiDiLao Q Square Branch","lat":25.0496268,"lng":121.5169766},{"types":"sushi_restaurant,japanese_restaurant,restaurant,food,point_of_interest,establishment","formattedAddress":"100, Taiwan, Taipei City, Zhongzheng District, Guanqian Rd, 12號5樓","websiteUri":"https://kurasushi.tw/shops","name":"KURA SUSHI Taipei Guanqian Restaurant","lat":25.0456618,"lng":121.5147282},{"types":"restaurant,food,point_of_interest,establishment","formattedAddress":"108, Taiwan, Taipei City, Wanhua District, Section 1, Zhonghua Rd, 192號1樓","websiteUri":"http://www.facebook.com/kingfood58/","name":"Hotpot Restuarant Emperor House","lat":25.0387744,"lng":121.506892},{"types":"sushi_restaurant,japanese_restaurant,restaurant,food,point_of_interest,establishment","formattedAddress":"100, Taiwan, Taipei City, Zhongzheng District, Guanqian Rd, 8號2樓","websiteUri":"http://www.sushiro.com.tw/","name":"SUSHIRO Taipei Station Restaurant","lat":25.0458475,"lng":121.5147831},{"types":"restaurant,food,point_of_interest,establishment","formattedAddress":"100, Taiwan, Taipei City, Zhongzheng District, Section 1, Zhonghua Rd, 55號2F","websiteUri":"https://www.wulao.com.tw/","name":"Wulao Pot","lat":25.0427074,"lng":121.5089386},{"types":"japanese_restaurant,asian_restaurant,cafeteria,restaurant,food,point_of_interest,establishment","formattedAddress":"100, Taiwan, Taipei City, Zhongzheng District, Guanqian Rd, 12號6樓","websiteUri":"https://www.shinyeh.com.tw/content/zh/brand/Index.aspx?BrandId=4","name":"Shin Yeh Japanese Buffet Guanqian Branch","lat":25.0456618,"lng":121.5147282},{"types":"restaurant,food,point_of_interest,establishment","formattedAddress":"108, Taiwan, Taipei City, Wanhua District, Section 1, Zhonghua Rd, 78號1樓","websiteUri":"https://www.godguo.com.tw/","name":"God Guo Hot Pot Taipei Ximen Branch","lat":25.045532,"lng":121.508824}]