[{"types":"hotel,university,convention_center,lodging,event_venue,restaurant,food,point_of_interest,establishment","formattedAddress":"No. 30號, Section 3, Xinsheng S Rd, Da’an District, Taipei City, Taiwan 106","websiteUri":"https://www.howard-hotels.com.tw/zh_TW/HotelBusiness/96","name":"Howard Civil Service International House","lat":25.0236484,"lng":121.5343264},{"types":"park,tourist_attraction,performing_arts_theater,parking,real_estate_agency,food_store,store,event_venue,restaurant,food,point_of_interest,establishment","formattedAddress":"No. 2號, Section 3, Tingzhou Rd, Zhongzheng District, Taipei City, Taiwan 100","websiteUri":"https://ssl.thcp.org.tw/","name":"Taipei City Hakka Cultural Park","lat":25.0201302,"lng":121.5253411},{"types":"restaurant,food,point_of_interest,establishment","formattedAddress":"No. 1號, Alley 9, Lane 316, Section 3, Roosevelt Rd, Zhongzheng District, Taipei City, Taiwan 100","websiteUri":"https://inline.app/order/-LDKPhTT6bNhwjRVHpC2/-MWbDrcVGUuDMkYvCrz7?language=zh-tw","name":"Xin Dian Hotpot","lat":25.0155617,"lng":121.5318555},{"types":"restaurant,food,point_of_interest,establishment","formattedAddress":"No. 5號, Alley 9, Lane 316, Section 3, Roosevelt Rd, Zhongzheng District, Taipei City, Taiwan 100","websiteUri":"","name":"SECOND FLOOR CAFE Gongguan","lat":25.0157721,"lng":121.5316146},{"types":"asian_restaurant,chinese_restaurant,restaurant,food,point_of_interest,establishment","formattedAddress":"Lane 75, Section 1, Heping E Rd, Da’an District, Taipei City, Taiwan 106","websiteUri":"https://www.facebook.com/LiJinRestaurant/","name":"Taidian Li Jin Restaurant","lat":25.027533,"lng":121.5250959},{"types":"dessert_restaurant,dessert_shop,bakery,confectionery,wholesaler,food_store,store,restaurant,food,point_of_interest,establishment","formattedAddress":"No. 1號, Lane 141, Section 2, Jinshan S Rd, Da’an District, Taipei City, Taiwan 106","websiteUri":"https://minuit.com.tw/","name":"深夜裡的法國手工甜點","lat":25.0296726,"lng":121.5268376},{"types":"american_restaurant,restaurant,food,point_of_interest,establishment","formattedAddress":"No. 24號, Shida Rd, Da’an District, Taipei City, Taiwan 106","websiteUri":"","name":"SECOND FLOOR CAFE NTNU","lat":25.025382,"lng":121.5282143},{"types":"french_restaurant,japanese_restaurant,restaurant,food,point_of_interest,establishment","formattedAddress":"100, Taiwan, Taipei City, Zhongzheng District, Section 2, Nanchang Rd, 112號2樓","websiteUri":"http://www.chamonix.com.tw/","name":"CHAMONIX Taipei Nanchang Branch","lat":25.0257837,"lng":121.5220567},{"types":"restaurant,food,point_of_interest,establishment","formattedAddress":"No. 2號, Alley 21, Lane 283, Section 3, Luosifu Rd, Da’an District, Taipei City, Taiwan 106","websiteUri":"","name":"Wish You Luck HK Cafe","lat":25.0196468,"lng":121.5316013},{"types":"restaurant,banquet_hall,wedding_venue,chinese_restaurant,event_venue,food,point_of_interest,establishment","formattedAddress":"No. 16號, Siyuan St, Zhongzheng District, Taipei City, Taiwan 100","websiteUri":"https://www.lamaree.com.tw/gongguan/","name":"La Marée","lat":25.0137039,"lng":121.5283471},{"types":"meal_takeaway,restaurant,food,point_of_interest,establishment","formattedAddress":"No. 3號, Alley 8, Ln. 316, Section 3, Roosevelt Rd, Zhongzheng District, Taipei City, Taiwan 100","websiteUri":"https://instagram.com/lan_jia_gua_bao?utm_medium=copy_link","name":"Lan Jia Gua Bao Traditional Taiwanese Snack","lat":25.0156409,"lng":121.5326387},{"types":"restaurant,food,point_of_interest,establishment","formattedAddress":"No. 10, Lane 284, Section 3, Roosevelt Rd, Zhongzheng District, Taipei City, Taiwan 100","websiteUri":"https://www.facebook.com/%E6%B1%A0%E5%85%88%E7%94%9F-Kopitiam-274016432761128/?hc_location=ufi","name":"Mr. Chee Kopitiam","lat":25.015967,"lng":121.531804},{"types":"asian_restaurant,chinese_restaurant,restaurant,food,point_of_interest,establishment","formattedAddress":"No. 48, Yongkang St, Da’an District, Taipei City, Taiwan 106","websiteUri":"","name":"Hong Kong Xin Hua Restaurant","lat":25.0289507,"lng":121.5294734},{"types":"restaurant,food,point_of_interest,establishment","formattedAddress":"No. 27號, Section 2, Roosevelt Rd, Da’an District, Taipei City, Taiwan 106","websiteUri":"https://www.wagyushabu.com.tw/","name":"Wagyu Shabu","lat":25.0279444,"lng":121.522035},{"types":"fast_food_restaurant,hamburger_restaurant,brunch_restaurant,american_restaurant,restaurant,food,point_of_interest,establishment","formattedAddress":"No. 45, Section 2, Roosevelt Rd, Da’an District, Taipei City, Taiwan 106","websiteUri":"https://www.mcdonalds.com/tw/zh-tw.html","name":"McDonald's Roosevelt Road","lat":25.0274742,"lng":121.5224211},{"types":"chinese_restaurant,food_store,store,restaurant,food,point_of_interest,establishment","formattedAddress":"No. 58之3號, Section 3, Xinsheng S Rd, Da’an District, Taipei City, Taiwan 106","websiteUri":"https://www.facebook.com/share/15owTuGTJi/?mibextid=wwXIfr","name":"Fengcheng Cantonese Restaurant","lat":25.023717,"lng":121.5348771},{"types":"deli,meal_takeaway,food_store,store,restaurant,food,point_of_interest,establishment","formattedAddress":"No. 14, Lane 39, Shida Rd, Da’an District, Taipei City, Taiwan 106","websiteUri":"https://line.me/R/ti/p/%40441smpof","name":"SHI YUN Taiwanese Fried Chicken Main Store","lat":25.0245357,"lng":121.5290215},{"types":"chinese_restaurant,restaurant,food,point_of_interest,establishment","formattedAddress":"No. 188, Section 2, Nanchang Rd, Zhongzheng District, Taipei City, Taiwan 100","websiteUri":"http://www.wutsaujiu.com.tw/php/menu_list.php","name":"五草車中華食館 南昌店","lat":25.0242771,"lng":121.5238735},{"types":"korean_restaurant,restaurant,food,point_of_interest,establishment","formattedAddress":"No. 29號, Lane 13, Pucheng St, Da’an District, Taipei City, Taiwan 106","websiteUri":"https://inline.app/booking/-NQ51p0FXtvrqxj-vaKO:inline-live-3","name":"東大門韓國特色料理","lat":25.0245278,"lng":121.5280571},{"types":"restaurant,food,point_of_interest,establishment","formattedAddress":"No. 28, Section 3, Xinsheng S Rd, Da’an District, Taipei City, Taiwan 106","websiteUri":"http://www.mjy.com.tw/","name":"莫宰羊-大安台大店","lat":25.0238748,"lng":121.5344152}]