[{"types":"chinese_restaurant,wedding_venue,banquet_hall,event_venue,restaurant,food,point_of_interest,establishment","formattedAddress":"231, Taiwan, New Taipei City, Xindian District, Section 3, Beixin Rd, 207之1號1樓","websiteUri":"https://www.pengyuan.com.tw/branch/xindian","name":"Peng's Gourmet \u0026 Banquet Xindian Branch","lat":24.9848767,"lng":121.5399642},{"types":"restaurant,food,point_of_interest,establishment","formattedAddress":"231, Taiwan, New Taipei City, Xindian District, Zhongzheng Rd, 244-4號1 樓","websiteUri":"","name":"賴岡山羊肉","lat":24.973311,"lng":121.539621},{"types":"wedding_venue,event_venue,restaurant,food,point_of_interest,establishment","formattedAddress":"No. 205, Section 3, Beixin Rd, Xindian District, New Taipei City, Taiwan 231","websiteUri":"https://how-dine.com.tw/","name":"How Dine Restaurant","lat":24.9842565,"lng":121.5401405},{"types":"breakfast_restaurant,restaurant,food,point_of_interest,establishment","formattedAddress":"No. 438號, Zhongzheng Rd, Xindian District, New Taipei City, Taiwan 231","websiteUri":"","name":"旭達豆漿店","lat":24.9783463,"lng":121.5342777},{"types":"restaurant,food,point_of_interest,establishment","formattedAddress":"No. 67號, Baoqiao Rd, Xindian District, New Taipei City, Taiwan 231","websiteUri":"https://zh-tw.facebook.com/pages/%E5%B0%8F%E6%A8%82%E7%B2%BE%E7%B7%BB%E9%BA%B5%E9%A3%9F%E9%A4%A8/201732783212745","name":"Xiao-Le Noodles","lat":24.975225,"lng":121.545282},{"types":"sushi_restaurant,japanese_restaurant,restaurant,food,point_of_interest,establishment","formattedAddress":"No. 13號, Section 3, Zhongxing Rd, Xindian District, New Taipei City, Taiwan 231","websiteUri":"http://www.sushiro.com.tw/","name":"SUSHIRO Xindian Zhongxing Rd. Branch","lat":24.9788393,"lng":121.5447987},{"types":"restaurant,food,point_of_interest,establishment","formattedAddress":"23141, Taiwan, New Taipei City, Xindian District, Minquan Rd, 100號1F","websiteUri":"https://www.facebook.com/chinhuajiao/","name":"Chin Hua Jiao Xindian Minquan Branch","lat":24.9831375,"lng":121.5362962},{"types":"italian_restaurant,restaurant,food,point_of_interest,establishment","formattedAddress":"No. 274之2號, Jingxing Rd, Wenshan District, Taipei City, Taiwan 116","websiteUri":"https://www.facebook.com/mintshihhsin/?fref=ts","name":"MINT PASTA 綠薄荷麵食坊","lat":24.9982285,"lng":121.544415},{"types":"korean_restaurant,restaurant,food,point_of_interest,establishment","formattedAddress":"No. 8號, Alley 2, Lane 1, Ershizhang Rd, Xindian District, New Taipei City, Taiwan 231","websiteUri":"https://www.facebook.com/funfunpot/","name":"FUN鍋子","lat":24.9823553,"lng":121.5403043},{"types":"restaurant,food,point_of_interest,establishment","formattedAddress":"No. 31號, Yonghua St, Xindian District, New Taipei City, Taiwan 231","websiteUri":"https://inline.app/booking/jimmyontheroad/1983","name":"Jimmy on the road 居米先生在路上","lat":24.9763224,"lng":121.5438635},{"types":"asian_restaurant,deli,chinese_restaurant,restaurant,food_store,food,store,point_of_interest,establishment","formattedAddress":"No. 414號, Zhongzheng Rd, Xindian District, New Taipei City, Taiwan 231","websiteUri":"https://m.facebook.com/pages/category/Diner/%E6%96%B0%E5%BA%97%E5%8D%80-%E9%98%BF%E8%98%AD%E5%A7%8A%E8%96%91%E6%AF%8D%E9%B4%A8-196381633768050/","name":"新店阿蘭姊薑母鴨","lat":24.9778303,"lng":121.5345607},{"types":"fast_food_restaurant,hamburger_restaurant,brunch_restaurant,american_restaurant,restaurant,food,point_of_interest,establishment","formattedAddress":"No. 102, Section 2, Beixin Rd, Xindian District, New Taipei City, Taiwan 231","websiteUri":"https://www.mcdonalds.com/tw/zh-tw.html","name":"McDonald's Xindian Beixin Branch","lat":24.9738071,"lng":121.5431776},{"types":"chinese_restaurant,restaurant,food,point_of_interest,establishment","formattedAddress":"No. 225號, Section 3, Zhongxing Rd, Xindian District, New Taipei City, Taiwan 231","websiteUri":"","name":"Ahui Beef Restaurant","lat":24.9830597,"lng":121.5430698},{"types":"chinese_restaurant,dessert_restaurant,restaurant,food,point_of_interest,establishment","formattedAddress":"No. 25號, Minquan Rd, Xindian District, New Taipei City, Taiwan 231","websiteUri":"http://www.suhung.com.tw/","name":"Suhang Restaurant — Dapinglin Branch","lat":24.9827988,"lng":121.5410118},{"types":"japanese_restaurant,restaurant,food,point_of_interest,establishment","formattedAddress":"No. 145號, Section 3, Beixin Rd, Xindian District, New Taipei City, Taiwan 231","websiteUri":"","name":"饗醬燒烤【新店店】","lat":24.9832373,"lng":121.5411281},{"types":"restaurant,food,point_of_interest,establishment","formattedAddress":"231, Taiwan, New Taipei City, Xindian District, Minquan Rd, 82號2樓","websiteUri":"https://www.giguo.com.tw/","name":"聚 日式鍋物 新店民權店","lat":24.9830944,"lng":121.5372088},{"types":"deli,restaurant,food_store,food,store,point_of_interest,establishment","formattedAddress":"No. 52號, Bao'an St, Xindian District, New Taipei City, Taiwan 231","websiteUri":"","name":"Xiao Tong An Noodles","lat":24.9835437,"lng":121.5417811},{"types":"fast_food_restaurant,hamburger_restaurant,brunch_restaurant,american_restaurant,restaurant,food,point_of_interest,establishment","formattedAddress":"231, Taiwan, New Taipei City, Xindian District, Section 3, Beixin Rd, 51號1-2樓","websiteUri":"https://www.mcdonalds.com/tw/zh-tw.html","name":"McDonald's Xindian Beixin 2","lat":24.9805422,"lng":121.5416675},{"types":"korean_restaurant,restaurant,food,point_of_interest,establishment","formattedAddress":"231, Taiwan, New Taipei City, Xindian District, Zhongzheng Rd, 542之3號","websiteUri":"https://www.facebook.com/koreafood8/?locale=zh_TW","name":"朝鮮味","lat":24.9853306,"lng":121.5337444},{"types":"steak_house,restaurant,food,point_of_interest,establishment","formattedAddress":"231, Taiwan, New Taipei City, Xindian District, Minquan Rd, 82號2樓","websiteUri":"https://www.tasty.com.tw/","name":"TASTy Xindian Minquan Branch","lat":24.9830944,"lng":121.5372088}]