[{"types":"japanese_restaurant,restaurant,food,point_of_interest,establishment","formattedAddress":"No. 205號, Section 4, Chenggong Rd, Neihu District, Taipei City, Taiwan 114","websiteUri":"https://www.facebook.com/%E5%8D%A1%E6%8B%89%E6%8B%89%E6%97%A5%E5%BC%8F%E6%B6%AE%E6%B6%AE%E9%8D%8B-784231071633667","name":"卡拉拉涮涮鍋（僅接受火鍋訂位服務）","lat":25.0842379,"lng":121.5960339},{"types":"restaurant,food,point_of_interest,establishment","formattedAddress":"No. 147號, Section 4, Chenggong Rd, Neihu District, Taipei City, Taiwan 114017","websiteUri":"https://instagram.com/uncle.kamjatang.02?igshid=MzRlODBiNWFlZA==","name":"Uncle-K 火烤店 아저씨감자탕","lat":25.0830084,"lng":121.5938292},{"types":"restaurant,cafe,american_restaurant,food,point_of_interest,establishment","formattedAddress":"No. 118號, Section 5, Chenggong Rd, Neihu District, Taipei City, Taiwan 114","websiteUri":"https://www.facebook.com/triplecafe2016/","name":"Triple Cafe","lat":25.0832924,"lng":121.6041077},{"types":"japanese_restaurant,restaurant,food,point_of_interest,establishment","formattedAddress":"No. 188號, Section 4, Chenggong Rd, Neihu District, Taipei City, Taiwan 114","websiteUri":"http://tsutaya.com.tw/wired/Menu_CHAYA.php","name":"WIRED CHAYA","lat":25.083992,"lng":121.594264},{"types":"restaurant,food,point_of_interest,establishment","formattedAddress":"No. 139號, Section 1, Kangning Rd, Neihu District, Taipei City, Taiwan 114","websiteUri":"","name":"貝蛤蛤海鮮餐酒館-內湖店","lat":25.0794172,"lng":121.5939589},{"types":"restaurant,pizza_restaurant,brunch_restaurant,italian_restaurant,food,point_of_interest,establishment","formattedAddress":"No. 31, Section 5, Chenggong Rd, Neihu District, Taipei City, Taiwan 114","websiteUri":"https://www.facebook.com/DillDahuPark/","name":"饗趣31義式景觀餐廳","lat":25.0827492,"lng":121.6039083},{"types":"sandwich_shop,brunch_restaurant,american_restaurant,restaurant,food,point_of_interest,establishment","formattedAddress":"No. 57號, 金湖路內湖區台北市 Taiwan 114","websiteUri":"https://instagram.com/omnivore_taipei?igshid=OGQ5ZDc2ODk2ZA==","name":"Omnivore","lat":25.0819985,"lng":121.596853},{"types":"fast_food_restaurant,hamburger_restaurant,brunch_restaurant,american_restaurant,restaurant,food,point_of_interest,establishment","formattedAddress":"No. 6號, Jinlong Rd, Neihu District, Taipei City, Taiwan 114","websiteUri":"https://www.mcdonalds.com/tw/zh-tw.html","name":"McDonald's Neihu Jinlong Road","lat":25.0875491,"lng":121.5880567},{"types":"asian_restaurant,banquet_hall,chinese_restaurant,event_venue,restaurant,food,point_of_interest,establishment","formattedAddress":"114, Taiwan, Taipei City, Neihu District, Section 4, Chenggong Rd, 166號2樓","websiteUri":"http://www.chihai.com.tw/chihai1.asp","name":"七海酒樓","lat":25.0829856,"lng":121.5932303},{"types":"brunch_restaurant,restaurant,food_store,food,store,point_of_interest,establishment","formattedAddress":"No. 49號, Lane 61, Section 4, Chenggong Rd, Neihu District, Taipei City, Taiwan 114","websiteUri":"","name":"哈姆選物 Hamu Café","lat":25.0799899,"lng":121.5938068},{"types":"chinese_restaurant,restaurant,food,point_of_interest,establishment","formattedAddress":"114, Taiwan, Taipei City, Neihu District, Section 4, Chenggong Rd, 178號2樓","websiteUri":"http://hefengcuisine.com.tw/","name":"荷風中國菜","lat":25.0835401,"lng":121.5938224},{"types":"restaurant,food,point_of_interest,establishment","formattedAddress":"No. 305, Section 4, Chenggong Rd, Neihu District, Taipei City, Taiwan 114","websiteUri":"","name":"Shuizhong Xian Restaurant","lat":25.0844733,"lng":121.59816},{"types":"italian_restaurant,restaurant,food,point_of_interest,establishment","formattedAddress":"No. 16號, Lane 168, Dahu St, Neihu District, Taipei City, Taiwan 114","websiteUri":"https://inline.app/booking/-MYihG6KhaB_VrFK21kP:inline-live-2/-MscKey10ibdW40XtWJk","name":"Buono Bella Italian Restaurant - Taipei Branch","lat":25.0803445,"lng":121.6027479},{"types":"fast_food_restaurant,restaurant,food,point_of_interest,establishment","formattedAddress":"1樓, No. 178號, Section 4, Chenggong Rd, Neihu District, Taipei City, Taiwan 114","websiteUri":"https://www.burgerking.com.tw/","name":"Burger King (Chenggong Rd. Store)","lat":25.0835951,"lng":121.5938491},{"types":"indian_restaurant,restaurant,food,point_of_interest,establishment","formattedAddress":"No. 203號, Section 4, Chenggong Rd, Neihu District, Taipei City, Taiwan 114","websiteUri":"https://www.facebook.com/%E5%85%A7%E6%B9%96%E9%A6%AC%E5%8F%8B%E5%8F%8B%E5%8D%B0%E5%BA%A6%E9%A4%90%E5%BB%B3-Mayur-Indian-Kitchen-101928942623383/","name":"Mayur indian kitchen Restaurent Neihu","lat":25.0841863,"lng":121.5959021},{"types":"restaurant,food,point_of_interest,establishment","formattedAddress":"No. 5號, Lane 219, Dahushanzhuang St, Neihu District, Taipei City, Taiwan 114","websiteUri":"https://www.facebook.com/pages/%E5%A4%A7%E6%B9%96%E9%BA%B5%E9%A3%9F%E9%A4%A8/384829518316989","name":"大湖麵館","lat":25.088383,"lng":121.599576},{"types":"restaurant,food,point_of_interest,establishment","formattedAddress":"114, Taiwan, Taipei City, Neihu District, Dahushanzhuang St, 221號1樓","websiteUri":"https://inline.app/booking/-N9ol0f1DpsgfAmiOPTi:inline-live-1/-N9ol0uyM_tAcXJkIrPV","name":"樂湖Le lakeshore","lat":25.0882016,"lng":121.5993064},{"types":"chinese_restaurant,restaurant,food_store,food,store,point_of_interest,establishment","formattedAddress":"No. 1-1號, Alley 35, Lane 61, Section 4, Chenggong Rd, Neihu District, Taipei City, Taiwan 114","websiteUri":"","name":"康寧雞腿達人","lat":25.0805536,"lng":121.5934169},{"types":"japanese_restaurant,restaurant,food,point_of_interest,establishment","formattedAddress":"114015, Taiwan, Taipei City, Neihu District, Jinlong Rd, 64-1號1樓","websiteUri":"https://instagram.com/zhancurlee?r=nametag","name":"詹咖李","lat":25.0848285,"lng":121.5928776},{"types":"chinese_restaurant,restaurant,food,point_of_interest,establishment","formattedAddress":"No. 347, Section 4, Chenggong Rd, Neihu District, Taipei City, Taiwan 114","websiteUri":"http://sandyblog98.pixnet.net/blog/post/50596608-%E3%80%90%E9%A3%9F%E8%A8%98%E3%80%91-%E5%8F%B0%E5%8C%97%E2%94%82%E6%8D%B7%E9%81%8B%E5%A4%A7%E6%B9%96%E5%85%AC%E5%9C%92%E7%AB%99%E2%94%82%E5%BB%9A%E6%88%BF%E5%AE%A2%E5%AE%B6","name":"廚房客家小館","lat":25.0845418,"lng":121.5996054}]