[{"types":"restaurant,food,point_of_interest,establishment","formattedAddress":"No. 159號, Zhongyang Rd, Xindian District, New Taipei City, Taiwan 231","websiteUri":"https://www.ikea.com.tw/zh/store/xin-dian/index","name":"IKEA Swedish Restaurant Xindian Store","lat":24.972845,"lng":121.5299629},{"types":"chinese_restaurant,restaurant,food,point_of_interest,establishment","formattedAddress":"No. 19號, Lane 133, Zhongyang Rd, Xindian District, New Taipei City, Taiwan 23150","websiteUri":"https://www.facebook.com/%E5%B0%8F%E7%A2%A7%E6%BD%AD%E5%B1%B1%E6%9D%B1%E5%B0%8F%E9%A4%A8-183347568374984/","name":"San Tung Chinese Restaurant","lat":24.9734286,"lng":121.5314075},{"types":"breakfast_restaurant,restaurant,food,point_of_interest,establishment","formattedAddress":"No. 438號, Zhongzheng Rd, Xindian District, New Taipei City, Taiwan 231","websiteUri":"","name":"旭達豆漿店","lat":24.9783463,"lng":121.5342777},{"types":"asian_restaurant,deli,chinese_restaurant,food_store,restaurant,food,point_of_interest,store,establishment","formattedAddress":"No. 414號, Zhongzheng Rd, Xindian District, New Taipei City, Taiwan 231","websiteUri":"https://m.facebook.com/pages/category/Diner/%E6%96%B0%E5%BA%97%E5%8D%80-%E9%98%BF%E8%98%AD%E5%A7%8A%E8%96%91%E6%AF%8D%E9%B4%A8-196381633768050/","name":"新店阿蘭姊薑母鴨","lat":24.9778303,"lng":121.5345607},{"types":"restaurant,food,point_of_interest,establishment","formattedAddress":"231602, Taiwan, New Taipei City, Xindian District, Zhongyang Rd, 157號5樓","websiteUri":"https://xiaofree.com.tw/zh-TW/home","name":"小福利麻辣鍋 小碧潭店","lat":24.9723936,"lng":121.530427},{"types":"seafood_restaurant,chinese_restaurant,restaurant,food,point_of_interest,establishment","formattedAddress":"No. 135號, Sanmin Rd, Xindian District, New Taipei City, Taiwan 231","websiteUri":"http://www.facebook.com/BuZinoDian","name":"不仔的店","lat":24.9723523,"lng":121.5342343},{"types":"italian_restaurant,restaurant,food,point_of_interest,establishment","formattedAddress":"No. 1號, Zhongyang 6th St, Xindian District, New Taipei City, Taiwan 231","websiteUri":"https://www.facebook.com/LIRASTREET6/","name":"LIRA street6","lat":24.9745128,"lng":121.5306092},{"types":"korean_restaurant,restaurant,food,point_of_interest,establishment","formattedAddress":"No. 24號, Lane 133, Zhongyang Rd, Xindian District, New Taipei City, Taiwan 231","websiteUri":"https://www.facebook.com/seouluncle/","name":"Seoul Uncle","lat":24.9732318,"lng":121.5312795},{"types":"chinese_restaurant,restaurant,food,point_of_interest,establishment","formattedAddress":"No. 125號, Sanmin Rd, Xindian District, New Taipei City, Taiwan 231","websiteUri":"https://facebook.com/hoawangji/?locale2=zh_TW","name":"好旺記港式茶餐廳","lat":24.9722282,"lng":121.5346163},{"types":"indonesian_restaurant,restaurant,food,point_of_interest,establishment","formattedAddress":"No. 186號, Minzu Rd, Xindian District, New Taipei City, Taiwan 231","websiteUri":"","name":"Sultan Padang Resto","lat":24.9762489,"lng":121.536833},{"types":"fast_food_restaurant,hamburger_restaurant,brunch_restaurant,american_restaurant,restaurant,food,point_of_interest,establishment","formattedAddress":"No. 331號, Zhongzheng Rd, Xindian District, New Taipei City, Taiwan 231","websiteUri":"https://www.mcdonalds.com/tw/zh-tw.html","name":"McDonald's Xindian Zhongzheng 3rd Branch","lat":24.9751575,"lng":121.5359756},{"types":"restaurant,food,point_of_interest,establishment","formattedAddress":"No. 10號, Zhongyang 5th St, Xindian District, New Taipei City, Taiwan 231","websiteUri":"","name":"Xiang Chu Niu Tainan Fresh Beef Hot Pot","lat":24.9741488,"lng":121.5297399},{"types":"japanese_restaurant,restaurant,food,point_of_interest,establishment","formattedAddress":"231, Taiwan, New Taipei City, Xindian District, Sanmin Rd, 110號1樓","websiteUri":"","name":"夜葉食堂新店店","lat":24.9739869,"lng":121.5343289},{"types":"brunch_restaurant,coffee_shop,cafe,food_store,restaurant,food,point_of_interest,store,establishment","formattedAddress":"No. 145號, Zhonghua Rd, Xindian District, New Taipei City, Taiwan 231","websiteUri":"http://just-abear.com/","name":"只是一隻熊 Just a Bear 新店熊","lat":24.9701762,"lng":121.5382209},{"types":"restaurant,food,point_of_interest,establishment","formattedAddress":"231, Taiwan, New Taipei City, Xindian District, Zhongyang Rd, 157號5 樓","websiteUri":"https://www.jhujian.com.tw/","name":"築間幸福鍋物 京站小碧潭店","lat":24.9723936,"lng":121.530427},{"types":"restaurant,brunch_restaurant,food_store,food,point_of_interest,store,establishment","formattedAddress":"231, Taiwan, New Taipei City, Xindian District, Zhongyang 5th St, 32號1樓","websiteUri":"https://facebook.com/yarrataipei","name":"YARRA Cafe 澳式早午餐","lat":24.9747013,"lng":121.5287527},{"types":"restaurant,food,point_of_interest,establishment","formattedAddress":"No. 324號, Zhongzheng Rd, Xindian District, New Taipei City, Taiwan 231","websiteUri":"","name":"王德福滷担","lat":24.9749125,"lng":121.5370194},{"types":"breakfast_restaurant,restaurant,food,point_of_interest,establishment","formattedAddress":"No. 79號, Sanmin Rd, Xindian District, New Taipei City, Taiwan 231","websiteUri":"","name":"Guma Breakfast Restaurant","lat":24.9715051,"lng":121.5358876},{"types":"japanese_restaurant,restaurant,food,point_of_interest,establishment","formattedAddress":"231, Taiwan, New Taipei City, Xindian District, Zhongyang Rd, 157號5 樓","websiteUri":"https://www.mo-mo.com.tw/","name":"MO-MO-PARADISE 新店小碧潭牧場","lat":24.9723936,"lng":121.530427},{"types":"korean_restaurant,restaurant,food,point_of_interest,establishment","formattedAddress":"No. 294號, Zhongzheng Rd, Xindian District, New Taipei City, Taiwan 231","websiteUri":"","name":"Lao Sun Cold Noodles","lat":24.974488,"lng":121.537763}]