[{"types":"coffee_shop,cafe,food_store,store,restaurant,food,point_of_interest,establishment","formattedAddress":"No. 4號, Lane 26, Gangqian Rd, Neihu District, Taipei City, Taiwan 114","websiteUri":"https://www.facebook.com/TheAntipodean/timeline","name":"The Antipodean Neihu","lat":25.0827357,"lng":121.5778058},{"types":"restaurant,brunch_restaurant,american_restaurant,italian_restaurant,food_store,store,food,point_of_interest,establishment","formattedAddress":"No. 192, Section 2, Neihu Rd, Neihu District, Taipei City, Taiwan 114","websiteUri":"https://www.facebook.com/elephantgardencafe","name":"Elephant Garden Neihu","lat":25.0807602,"lng":121.5857784},{"types":"chinese_restaurant,restaurant,food,point_of_interest,establishment","formattedAddress":"No. 106號, Ruiguang Rd, Neihu District, Taipei City, Taiwan 114","websiteUri":"","name":"Yong Bao Restaurant","lat":25.0718424,"lng":121.5808359},{"types":"fast_food_restaurant,hamburger_restaurant,brunch_restaurant,american_restaurant,restaurant,food,point_of_interest,establishment","formattedAddress":"No. 741號, Section 1, Neihu Rd, Neihu District, Taipei City, Taiwan 114","websiteUri":"https://www.mcdonalds.com/tw/zh-tw.html","name":"McDonald's Taipei Neihu","lat":25.0789852,"lng":121.5785576},{"types":"thai_restaurant,restaurant,food,point_of_interest,establishment","formattedAddress":"No. 2號, Lane 600, Section 1, Neihu Rd, Neihu District, Taipei City, Taiwan 114","websiteUri":"https://pming-thaikitchen.weebly.com/","name":"P.Ming","lat":25.078571,"lng":121.5781478},{"types":"brunch_restaurant,food_store,store,restaurant,food,point_of_interest,establishment","formattedAddress":"114, Taiwan, Taipei City, Neihu District, Ruiguang Rd, 168號1樓","websiteUri":"http://instagram.com/leaves_cafe_dining/","name":"LEAVES Cafe 午葉內湖旗艦店","lat":25.0738908,"lng":121.5786041},{"types":"meal_takeaway,chinese_restaurant,restaurant,food,point_of_interest,establishment","formattedAddress":"No. 5號, Lane 68, Lishan St, Neihu District, Taipei City, Taiwan 114","websiteUri":"https://www.facebook.com/21callnoodle/","name":"文湖21雞湯麵","lat":25.0821508,"lng":121.5793312},{"types":"restaurant,food,point_of_interest,establishment","formattedAddress":"114, Taiwan, Taipei City, Neihu District, Alley 51, Lane 737, Section 1, Neihu Rd, 32號1樓","websiteUri":"https://liff.line.me/1645278921-kWRPP32q/?accountId=576ejywm","name":"碧山岩 桶仔雞 （Line ID:@576ejywm)","lat":25.0805336,"lng":121.5803681},{"types":"chinese_restaurant,restaurant,food,point_of_interest,establishment","formattedAddress":"No. 76號, Lane 103, Section 2, Neihu Rd, Neihu District, Taipei City, Taiwan 114","websiteUri":"https://www.facebook.com/dahu0675","name":"Dahu Restaurant","lat":25.0830951,"lng":121.5808362},{"types":"restaurant,food,point_of_interest,establishment","formattedAddress":"No. 147號, Section 4, Chenggong Rd, Neihu District, Taipei City, Taiwan 114017","websiteUri":"https://instagram.com/uncle.kamjatang.02?igshid=MzRlODBiNWFlZA==","name":"Uncle-K 火烤店 아저씨감자탕","lat":25.0830084,"lng":121.5938292},{"types":"italian_restaurant,restaurant,food,point_of_interest,establishment","formattedAddress":"No. 240號, Yangguang St, Neihu District, Taipei City, Taiwan 114","websiteUri":"http://www.calacala.com.tw/","name":"CaLACaLA義大利廚房內湖店","lat":25.073609,"lng":121.5784903},{"types":"restaurant,food,point_of_interest,establishment","formattedAddress":"114, Taiwan, Taipei City, Neihu District, Section 4, Chenggong Rd, 34號1樓","websiteUri":"https://www.jhujian.com.tw/","name":"築間幸福鍋物 內湖成功店","lat":25.0818161,"lng":121.5916764},{"types":"restaurant,food,point_of_interest,establishment","formattedAddress":"No. 236號, Wende Rd, Neihu District, Taipei City, Taiwan 114","websiteUri":"https://www.facebook.com/profile.php?id=61550925285652\u0026mibextid=eBUYbo","name":"霸味薑母鴨-內湖旗艦店","lat":25.0787494,"lng":121.588533},{"types":"chinese_restaurant,restaurant,food,point_of_interest,establishment","formattedAddress":"No. 60號, Alley 9, Lane 22, Wende Rd, Neihu District, Taipei City, Taiwan 11475","websiteUri":"https://www.facebook.com/game741900/","name":"Mrs. Liu's Tongguan Roujiamo","lat":25.0773425,"lng":121.5796344},{"types":"restaurant,food,point_of_interest,establishment","formattedAddress":"No. 2號, Lane 112, Jiangnan St, Neihu District, Taipei City, Taiwan 114","websiteUri":"https://shop.cashier.tw/online/store/2f90790e-0a42-47b3-9f4a-e82b854b4b3e/welcome?mode=takeoutNdelivery","name":"喜魚 小酸菜魚-內湖店","lat":25.0766758,"lng":121.5763296},{"types":"restaurant,food,point_of_interest,establishment","formattedAddress":"No. 139號, Section 1, Kangning Rd, Neihu District, Taipei City, Taiwan 114","websiteUri":"","name":"貝蛤蛤海鮮餐酒館-內湖店","lat":25.0794172,"lng":121.5939589},{"types":"chinese_restaurant,restaurant,food,point_of_interest,establishment","formattedAddress":"No. 30號, Wende Rd, Neihu District, Taipei City, Taiwan 114","websiteUri":"https://www.godhotpot.com/hotpot","name":"神來一鍋 (內湖店)","lat":25.078253,"lng":121.5798841},{"types":"italian_restaurant,restaurant,food,point_of_interest,establishment","formattedAddress":"No. 183號, Section 3, Chenggong Rd, Neihu District, Taipei City, Taiwan 114","websiteUri":"https://facebook.com/%E5%85%A7%E6%B9%96%E5%A4%AF%E9%BA%B5%E5%9D%8A-165397150176093/","name":"夯麵坊成功店","lat":25.0801787,"lng":121.5907338},{"types":"restaurant,food,point_of_interest,establishment","formattedAddress":"No. 50號, Alley 16, Lane 71, Jiangnan St, Neihu District, Taipei City, Taiwan 114","websiteUri":"https://xiaotingyuan.weebly.com/","name":"小庭院泰食","lat":25.0757671,"lng":121.5780075},{"types":"japanese_restaurant,restaurant,food,point_of_interest,establishment","formattedAddress":"No. 13號, Alley 25, Lane 61, Section 4, Chenggong Rd, Neihu District, Taipei City, Taiwan 114","websiteUri":"","name":"仁壽司","lat":25.0809241,"lng":121.5931069}]