[{"types":"deli,meal_delivery,food_delivery,meal_takeaway,food_store,store,restaurant,food,point_of_interest,establishment","formattedAddress":"1樓, No. 44號, Lane 188, Section 1, Wenhua Rd, Banqiao District, New Taipei City, Taiwan 220","websiteUri":"https://www.ukuko.com.tw/page/about/index.aspx?kind=36\u0026lang=TW","name":"Ukuko Oyster Thin Noodles","lat":25.0188328,"lng":121.4668344},{"types":"restaurant,food,point_of_interest,establishment","formattedAddress":"No. 181號, Section 2, Wenhua Rd, Banqiao District, New Taipei City, Taiwan 220","websiteUri":"https://www.facebook.com/GIDOHOTPOT/","name":"吉哆火鍋百匯","lat":25.0280879,"lng":121.4705921},{"types":"japanese_restaurant,restaurant,food,point_of_interest,establishment","formattedAddress":"220, Taiwan, New Taipei City, Banqiao District, Alley 3, Lane 182, Section 2, Wenhua Rd, 79號3樓","websiteUri":"https://www.powerofmeat.com.tw/","name":"Power of Meat Banqiao MRT Jiangzicui Branch","lat":25.0292649,"lng":121.4727657},{"types":"restaurant,food,point_of_interest,establishment","formattedAddress":"No. 2號, Lane 259, Siwei Rd, Banqiao District, New Taipei City, Taiwan 220","websiteUri":"https://www.facebook.com/groups/206370216959252/?epa=SEARCH_BOX","name":"甕中甕炭火煨湯","lat":25.0281255,"lng":121.4629999},{"types":"fast_food_restaurant,hamburger_restaurant,brunch_restaurant,american_restaurant,restaurant,food,point_of_interest,establishment","formattedAddress":"No. 173, Section 2, Wenhua Rd, Banqiao District, New Taipei City, Taiwan 220","websiteUri":"https://www.mcdonalds.com/tw/zh-tw.html","name":"McDonald's","lat":25.0277747,"lng":121.4703764},{"types":"seafood_restaurant,restaurant,food,point_of_interest,establishment","formattedAddress":"No. 126, Section 2, Wenhua Rd, Banqiao District, New Taipei City, Taiwan 220","websiteUri":"http://deepseafish.eatingout.com.tw/","name":"Fishing Family Seafood Bistro","lat":25.0264574,"lng":121.470231},{"types":"restaurant,food,point_of_interest,establishment","formattedAddress":"220, Taiwan, New Taipei City, Banqiao District, Section 1, Wenhua Rd, 280號2樓","websiteUri":"https://www.wagyushabu.com.tw/index.php","name":"Wagyu Shabu Banqiao Wenhua Branch","lat":25.021312,"lng":121.467335},{"types":"japanese_restaurant,restaurant,food,point_of_interest,establishment","formattedAddress":"No. 231, Section 2, Minsheng Rd, Banqiao District, New Taipei City, Taiwan 220","websiteUri":"http://www.chamonix.com.tw/","name":"Chamonix Banqiao Minsheng","lat":25.0214907,"lng":121.4684811},{"types":"restaurant,food,point_of_interest,establishment","formattedAddress":"No. 51號, Lane 188, Section 1, Wenhua Rd, Banqiao District, New Taipei City, Taiwan 220","websiteUri":"","name":"Jiuyang Jiuyang Xinban Jasper Villa Branch","lat":25.0185377,"lng":121.4679345},{"types":"seafood_restaurant,chinese_restaurant,restaurant,food,point_of_interest,establishment","formattedAddress":"No. 35號, Wanban Rd, Banqiao District, New Taipei City, Taiwan 220","websiteUri":"https://www.facebook.com/pages/%E8%87%A8%E6%B4%8B%E6%B8%AF%E7%94%9F%E7%8C%9B%E6%B4%BB%E6%B5%B7%E9%AE%AE%E7%86%B1%E7%82%92/184155278283408","name":"三角點熱炒","lat":25.0214369,"lng":121.4710751},{"types":"meal_delivery,food_delivery,meal_takeaway,chinese_restaurant,restaurant,food,point_of_interest,establishment","formattedAddress":"No. 69號, Lane 188, Section 1, Wenhua Rd, Banqiao District, New Taipei City, Taiwan 220","websiteUri":"https://www.moonmoonfood.com/","name":"Moon Moon Food Banqiao Branch","lat":25.0179321,"lng":121.468719},{"types":"chinese_restaurant,restaurant,food,point_of_interest,establishment","formattedAddress":"No. 2號, Lane 112, Siwei Rd, Banqiao District, New Taipei City, Taiwan 220","websiteUri":"https://www.fami.tw/9rWRm","name":"大碗公當歸羊肉","lat":25.0248221,"lng":121.4658048},{"types":"chinese_restaurant,restaurant,food,point_of_interest,establishment","formattedAddress":"No. 128號, Xinhai Rd, Banqiao District, New Taipei City, Taiwan 220","websiteUri":"https://lin.ee/RUHzefz","name":"港豐撈麵飯堂","lat":25.0230525,"lng":121.4612067},{"types":"restaurant,food,point_of_interest,establishment","formattedAddress":"No. 136號, Banxin Rd, Banqiao District, New Taipei City, Taiwan 220","websiteUri":"https://www.facebook.com/%E6%A5%B5%E9%AE%AE%E7%81%AB%E9%8D%8B-%E6%9D%BF%E6%A9%8B%E5%BA%97-453100638109005/","name":"極鮮火鍋 板橋店","lat":25.0157229,"lng":121.470682},{"types":"brunch_restaurant,dessert_restaurant,food_store,store,restaurant,food,point_of_interest,establishment","formattedAddress":"No. 2號, Lane 72, Songjiang St, Banqiao District, New Taipei City, Taiwan 220","websiteUri":"https://www.instagram.com/nearhome_72/","name":"旧宅在 Near Home Cafe","lat":25.0277392,"lng":121.4688693},{"types":"vietnamese_restaurant,restaurant,food,point_of_interest,establishment","formattedAddress":"No. 48號, Section 3, Shuangshi Rd, Banqiao District, New Taipei City, Taiwan 220","websiteUri":"","name":"阿準越南料理","lat":25.0313531,"lng":121.4710904},{"types":"chinese_restaurant,restaurant,food,point_of_interest,establishment","formattedAddress":"No. 1, Lane 56, Yumin St, Banqiao District, New Taipei City, Taiwan 220","websiteUri":"https://www.facebook.com/56xiaolongbao","name":"56巷口湯包","lat":25.0287875,"lng":121.4611615},{"types":"japanese_restaurant,restaurant,food,point_of_interest,establishment","formattedAddress":"No. 132號, Section 2, Shuangshi Rd, Banqiao District, New Taipei City, Taiwan 220","websiteUri":"https://www.chientu.com.tw/","name":"Chien Tu Banqiao Shuangshi Branch","lat":25.0290367,"lng":121.4739374},{"types":"japanese_restaurant,restaurant,food,point_of_interest,establishment","formattedAddress":"220, Taiwan, New Taipei City, Banqiao District, 漢生西路119巷6號","websiteUri":"https://www.facebook.com/%E6%B4%A5%E4%B9%8B%E8%8A%B3%E7%94%9F%E9%AD%9A%E7%89%87%E5%B0%88%E8%B3%A3%E5%BA%97-213575537012/","name":"津之芳生魚片專賣店 致理店","lat":25.0204583,"lng":121.4622859},{"types":"restaurant,chinese_restaurant,food,point_of_interest,establishment","formattedAddress":"No. 9號, Lane 15, Minyou St, Banqiao District, New Taipei City, Taiwan 220","websiteUri":"https://instagram.com/calf_feast?igshid=NTc4MTIwNjQ2YQ==","name":"Calf Feast","lat":25.0247846,"lng":121.4662051}]