[{"types":"buffet_restaurant,restaurant,food,point_of_interest,establishment","formattedAddress":"242, Taiwan, New Taipei City, Xinzhuang District, Siyuan Rd, 555號39樓","websiteUri":"https://inparadise.com.tw/","name":"INPARADISE Xinzhuang Branch","lat":25.058357,"lng":121.4595736},{"types":"asian_restaurant,chinese_restaurant,restaurant,food,point_of_interest,establishment","formattedAddress":"No. 31號, Zhongyuan Rd, Xinzhuang District, New Taipei City, Taiwan 242","websiteUri":"https://www.facebook.com/profile.php?id=100063920862370\u0026mibextid=LQQJ4d","name":"Chien-Yen Shabu Shabu","lat":25.0542559,"lng":121.4588141},{"types":"wedding_venue,event_venue,restaurant,food,point_of_interest,establishment","formattedAddress":"242, Taiwan, New Taipei City, Xinzhuang District, Wugong Rd, 66號2樓","websiteUri":"https://hdwfws.com.tw/","name":"海大王時尚囍宴廣場","lat":25.0640424,"lng":121.4590099},{"types":"restaurant,bar,food,point_of_interest,establishment","formattedAddress":"242, Taiwan, New Taipei City, Xinzhuang District, Wugong Rd, 66號1樓","websiteUri":"https://www.lebledor.com/location/jingguan?utm_source=GMB\u0026utm_medium=website-btn\u0026utm_campaign=jingguan","name":"Le Ble d'Or","lat":25.0637153,"lng":121.4584463},{"types":"restaurant,food,point_of_interest,establishment","formattedAddress":"242, Taiwan, New Taipei City, Xinzhuang District, Section 3, New Taipei Blvd, 79號1樓","websiteUri":"https://inline.app/booking/-O43wPkNl2trbWxA3-EF:inline-live-3/-O43wPwyebtDohJNFGtj","name":"青焰 炭火熟成牛排(新莊嘉軒門市)","lat":25.0600927,"lng":121.4539951},{"types":"restaurant,food,point_of_interest,establishment","formattedAddress":"242, Taiwan, New Taipei City, Xinzhuang District, Siyuan Rd, 553號1樓","websiteUri":"https://www.facebook.com/syabuyo?mibextid=dGKdO6","name":"涮乃葉 新莊思源店","lat":25.0583546,"lng":121.4593112},{"types":"japanese_restaurant,restaurant,food,point_of_interest,establishment","formattedAddress":"No. 39號, Zhongyuan Rd, Xinzhuang District, New Taipei City, Taiwan 242","websiteUri":"http://www.chientu.com.tw/","name":"Chien Tu Xinzhuang Zhongyuan Branch","lat":25.0540811,"lng":121.4584847},{"types":"japanese_restaurant,restaurant,food,point_of_interest,establishment","formattedAddress":"242034, Taiwan, New Taipei City, Xinzhuang District, Siyuan Rd, 555號38樓","websiteUri":"https://zhi-yun.com.tw/zh-TW","name":"旨醞 鐵板料理","lat":25.058357,"lng":121.4595736},{"types":"barbecue_restaurant,restaurant,food,point_of_interest,establishment","formattedAddress":"No. 481號, Siyuan Rd, Xinzhuang District, New Taipei City, Taiwan 242","websiteUri":"https://mibaba.com.tw/","name":"米炭火燒肉小酒館新莊思源店","lat":25.0540883,"lng":121.4597794},{"types":"pub,barbecue_area,cafe,bar,food_store,store,event_venue,restaurant,food,point_of_interest,establishment","formattedAddress":"No. 6-1號, Fuhui Rd, Xinzhuang District, New Taipei City, Taiwan 242","websiteUri":"https://www.facebook.com/%E5%B7%A6%E8%BD%89%E9%9D%A0%E5%8F%B3-The-Waiting-Zone-1796641850644285/?modal=admin_todo_tour","name":"左轉靠右咖啡酒吧","lat":25.0639322,"lng":121.4630314},{"types":"coffee_shop,cafe,food_store,store,restaurant,food,point_of_interest,establishment","formattedAddress":"No. 1號, Fude 3rd St, Xinzhuang District, New Taipei City, Taiwan 242","websiteUri":"http://www.playtogetherforest.com/","name":"童遊城堡親子咖啡廳-新莊分館","lat":25.0586182,"lng":121.4626272},{"types":"japanese_restaurant,restaurant,food,point_of_interest,establishment","formattedAddress":"No. 2號, Section 1, Ronghua Rd, Xinzhuang District, New Taipei City, Taiwan 242","websiteUri":"https://www.facebook.com/GOZEN-Japanese-Cuisine-Bar-110574287774558","name":"GOZEN Japanese Cuisine \u0026 Bar","lat":25.0558016,"lng":121.4577161},{"types":"chinese_restaurant,restaurant,food,point_of_interest,establishment","formattedAddress":"242, Taiwan, New Taipei City, Xinzhuang District, Wugong Rd, 66號6 樓","websiteUri":"","name":"新莊晶冠廣場-頤品大飯店","lat":25.0639992,"lng":121.4589388},{"types":"american_restaurant,restaurant,food,point_of_interest,establishment","formattedAddress":"No. 186號, Zhongyuan E Rd, Xinzhuang District, New Taipei City, Taiwan 242","websiteUri":"http://facebook.com/LovssBurger2","name":"樂漢堡美式餐廳(新北新莊店) LOVSS BURGER","lat":25.0545151,"lng":121.4615309},{"types":"chinese_restaurant,restaurant,food,point_of_interest,establishment","formattedAddress":"No. 133號, Zhongyuan Rd, Xinzhuang District, New Taipei City, Taiwan 242","websiteUri":"https://www.oldgod.com.tw/","name":"老先覺麻辣窯燒鍋(現切肉店型)-新莊中原店","lat":25.0542248,"lng":121.4549794},{"types":"steak_house,american_restaurant,restaurant,food,point_of_interest,establishment","formattedAddress":"No. 51號, Fude 2nd St, Xinzhuang District, New Taipei City, Taiwan 242","websiteUri":"https://m.facebook.com/110059444861909/","name":"肪煎 FAT JAM 現代牛排燒烤餐廳","lat":25.0570218,"lng":121.4611459},{"types":"italian_restaurant,restaurant,food,point_of_interest,establishment","formattedAddress":"No. 41號, Lane 128, Fumei St, Xinzhuang District, New Taipei City, Taiwan 242","websiteUri":"https://www.facebook.com/AlassioTheretoBegin","name":"Alassio 那裡開始","lat":25.0582733,"lng":121.4626059},{"types":"brunch_restaurant,restaurant,food,point_of_interest,establishment","formattedAddress":"No. 236, Zhongxing N St, Sanchong District, New Taipei City, Taiwan 241","websiteUri":"https://www.qburger.com.tw/","name":"Q Burger 創英店(概念店)","lat":25.0607731,"lng":121.4687488},{"types":"restaurant,japanese_restaurant,food,point_of_interest,establishment","formattedAddress":"No. 145-1號, Zhongyuan Rd, Xinzhuang District, New Taipei City, Taiwan 242","websiteUri":"https://www.instagram.com/lovecurry0056/","name":"喜歡咖哩-炸物本舖｜喜歡咖哩 Love Curry 中原店｜新莊咖哩美食推薦","lat":25.0542869,"lng":121.4541931},{"types":"meal_delivery,food_delivery,japanese_restaurant,restaurant,food,point_of_interest,establishment","formattedAddress":"No. 16號, Alley 9, Lane 12, Wuquanyi Rd, Xinzhuang District, New Taipei City, Taiwan 242","websiteUri":"https://reurl.cc/N4WXbp","name":"幸福小鎮的聚惠廚房丼飯","lat":25.0643743,"lng":121.4576635}]