[{"types":"steak_house,restaurant,point_of_interest,food,establishment","formattedAddress":"No. 317號, Section 6, Zhongxiao E Rd, Nangang District, Taipei City, Taiwan 115","websiteUri":"","name":"Noble Family Steak House","lat":25.0500037,"lng":121.5914248},{"types":"meal_takeaway,restaurant,point_of_interest,food,establishment","formattedAddress":"No. 372號, Section 6, Zhongxiao E Rd, Nangang District, Taipei City, Taiwan 115","websiteUri":"https://www.facebook.com/profile.php?id=61567074496722","name":"Jin Chun Fa Beef Noodle","lat":25.0496914,"lng":121.5917598},{"types":"restaurant,point_of_interest,food,establishment","formattedAddress":"No. 318號, Songhe St, Nangang District, Taipei City, Taiwan 115","websiteUri":"http://brickkiln.tw/","name":"磚窯古早料理南港創始店","lat":25.0529135,"lng":121.5835215},{"types":"pub,bar,event_venue,restaurant,point_of_interest,food,establishment","formattedAddress":"115, Taiwan, Taipei City, Nangang District, Section 8, Civic Blvd, 99號北流中心產業區5樓","websiteUri":"https://www.facebook.com/KafkabyTMC","name":"北流卡夫卡Kafka by TMC","lat":25.0526926,"lng":121.599042},{"types":"restaurant,point_of_interest,food,establishment","formattedAddress":"No. 280號, Section 2, Nangang Rd, Nangang District, Taipei City, Taiwan 115","websiteUri":"","name":"楊國福麻辣燙 台灣總店","lat":25.0544653,"lng":121.5962561},{"types":"restaurant,point_of_interest,food_store,store,food,establishment","formattedAddress":"No. 11號, Lane 118, Section 2, Nangang Rd, Nangang District, Taipei City, Taiwan 115","websiteUri":"https://www.instagram.com/tama.atelier/","name":"玉虫画室","lat":25.0541345,"lng":121.6015398},{"types":"restaurant,point_of_interest,food,establishment","formattedAddress":"No. 5號, Lane 140, Kunyang St, Nangang District, Taipei City, Taiwan 115","websiteUri":"","name":"Kunyang Beef Noodle Restaurant","lat":25.0499223,"lng":121.5939465},{"types":"fast_food_restaurant,brunch_restaurant,hamburger_restaurant,american_restaurant,restaurant,point_of_interest,food,establishment","formattedAddress":"No. 438號, Section 6, Zhongxiao E Rd, Nangang District, Taipei City, Taiwan 115","websiteUri":"https://www.mcdonalds.com/tw/zh-tw.html","name":"McDonald's","lat":25.0501488,"lng":121.5936976},{"types":"restaurant,point_of_interest,food_store,store,food,establishment","formattedAddress":"No. 99號, Section 7, Zhongxiao E Rd, Nangang District, Taipei City, Taiwan 115","websiteUri":"https://www.wait9time.com/pages/taipei-music-center","name":"Chotto Sake Bar at Taipei Music Center Hub","lat":25.0511745,"lng":121.5985844},{"types":"restaurant,point_of_interest,food,establishment","formattedAddress":"115, Taiwan, Taipei City, Nangang District, Section 3, Nangang Rd, 4號1樓","websiteUri":"https://www.facebook.com/profile.php?id=61550024740904\u0026mibextid=2JQ9oc","name":"正老林羊肉爐吃到飽-南港店","lat":25.054523,"lng":121.592994},{"types":"restaurant,point_of_interest,food,establishment","formattedAddress":"No. 100號, Tongde Rd, Nangang District, Taipei City, Taiwan 115","websiteUri":"https://www.facebook.com/Lingieomarjam/","name":"林記麻醬麵","lat":25.046125,"lng":121.586785},{"types":"golf_course,athletic_field,sports_activity_location,restaurant,point_of_interest,food,establishment","formattedAddress":"115007, Taiwan, Taipei City, Nangang District, Section 7, Civic Blvd, 100號2樓","websiteUri":"https://venomgolf.club/","name":"魔球高爾夫 Venom Golf 運動科技推廣中心/高爾夫球模擬器體驗與販售","lat":25.0491147,"lng":121.5836897},{"types":"chinese_restaurant,restaurant,point_of_interest,food,establishment","formattedAddress":"No. 10-11號, Dong Xin St, Nangang District, Taipei City, Taiwan 115","websiteUri":"","name":"阿和師薑母鴨 南港店","lat":25.0498362,"lng":121.58339},{"types":"restaurant,point_of_interest,food,establishment","formattedAddress":"No. 310號, Section 6, Zhongxiao E Rd, Nangang District, Taipei City, Taiwan 115","websiteUri":"https://qr-official.line.me/gs/M_833kmyar_GW.png?oat_content=qr%22%3E","name":"南港霸味薑母鴨","lat":25.0492741,"lng":121.5901609},{"types":"japanese_restaurant,restaurant,point_of_interest,food,establishment","formattedAddress":"No. 7號, Lane 157, Kunyang St, Nangang District, Taipei City, Taiwan 115","websiteUri":"https://zh-tw.facebook.com/teizumaru13","name":"鐵丸十三堂","lat":25.0499269,"lng":121.5945274},{"types":"restaurant,point_of_interest,food,establishment","formattedAddress":"No. 164號, Kunyang St, Nangang District, Taipei City, Taiwan 115","websiteUri":"https://www.facebook.com/JingHsinYuan/","name":"靜心苑","lat":25.0484537,"lng":121.5935251},{"types":"restaurant,point_of_interest,food,establishment","formattedAddress":"No. 128號, Xiangyang Rd, Nangang District, Taipei City, Taiwan 115","websiteUri":"https://www.facebook.com/pages/%E9%BB%83%E9%87%91%E6%B5%B7%E5%B2%B8%E6%B4%BB%E8%9D%A6%E4%B9%8B%E5%AE%B6/146883308701782","name":"南港海岸活蝦之家","lat":25.0548492,"lng":121.595414},{"types":"restaurant,point_of_interest,food,establishment","formattedAddress":"No. 31號, Section 3, Nangang Rd, Nangang District, Taipei City, Taiwan 115","websiteUri":"","name":"阿華鵝肉","lat":25.0537155,"lng":121.5912475},{"types":"restaurant,point_of_interest,food,establishment","formattedAddress":"No. 12號, Lane 140, Kunyang St, Nangang District, Taipei City, Taiwan 115","websiteUri":"https://youtu.be/1xf2tKdbEQo","name":"昆陽街 奇味番茄牛肉麵*僅此一家絕無分店*","lat":25.0496838,"lng":121.5939226},{"types":"brunch_restaurant,restaurant,point_of_interest,food,establishment","formattedAddress":"No. 1號, Kunyang St, Nangang District, Taipei City, Taiwan 115","websiteUri":"https://www.facebook.com/KelvinSonia132/","name":"早，日子","lat":25.053873,"lng":121.5925729}]