[{"types":"cafe,restaurant,point_of_interest,food,establishment","formattedAddress":"No. 242, Section 3, Muzha Rd, Wenshan District, Taipei City, Taiwan 116","websiteUri":"https://www.facebook.com/RuinsCoffeeRoasters/","name":"Ruins Coffee Roasters","lat":24.9907454,"lng":121.5710489},{"types":"dessert_shop,confectionery,food_store,restaurant,point_of_interest,food,store,establishment","formattedAddress":"No. 308號, Section 4, Heping E Rd, Wenshan District, Taipei City, Taiwan 116","websiteUri":"https://linktr.ee/mupatisserie","name":"MU Pâtisserie 沐林甜點烘焙坊","lat":24.9999795,"lng":121.5735367},{"types":"pub,japanese_restaurant,bar,restaurant,point_of_interest,food,establishment","formattedAddress":"No. 9-1, Wanfang Rd, Wenshan District, Taipei City, Taiwan 116","websiteUri":"https://inline.app/booking/zhanan","name":"Taiwan Player Bistro 2","lat":24.9984807,"lng":121.5704915},{"types":"fast_food_restaurant,brunch_restaurant,hamburger_restaurant,american_restaurant,restaurant,point_of_interest,food,establishment","formattedAddress":"No. 30號, Section 2, Xinguang Rd, Wenshan District, Taipei City, Taiwan 116","websiteUri":"https://www.mcdonalds.com/tw/zh-tw.html","name":"McDonald's Taipei Zoo","lat":24.9987382,"lng":121.5812202},{"types":"restaurant,point_of_interest,food,establishment","formattedAddress":"No. 104號, Section 1, Xinguang Rd, Wenshan District, Taipei City, Taiwan 116","websiteUri":"https://www.facebook.com/richsktn","name":"Le Lee Brother's No. 44 Bistro","lat":24.9914219,"lng":121.57353},{"types":"italian_restaurant,restaurant,point_of_interest,food,establishment","formattedAddress":"No. 44號, Section 1, Xinguang Rd, Wenshan District, Taipei City, Taiwan 116","websiteUri":"https://www.facebook.com/Trattoriasole?mibextid=ZbWKwL","name":"Trattoria al Sole","lat":24.9897689,"lng":121.573614},{"types":"restaurant,point_of_interest,food,establishment","formattedAddress":"No. 53號, Section 1, Xinguang Rd, Wenshan District, Taipei City, Taiwan 116","websiteUri":"https://www.facebook.com/SYUYUAN.restaurant/?rf=385390381556696","name":"敘緣小館","lat":24.9899427,"lng":121.5739141},{"types":"food_store,health,restaurant,point_of_interest,food,store,establishment","formattedAddress":"No. 50號, Section 1, Xinguang Rd, Wenshan District, Taipei City, Taiwan 116","websiteUri":"https://lin.ee/c2hld0g","name":"Mr. Light 輕食先生","lat":24.989908,"lng":121.573611},{"types":"restaurant,brunch_restaurant,food_store,point_of_interest,food,store,establishment","formattedAddress":"116, Taiwan, Taipei City, Wenshan District, Section 1, Xinguang Rd, 189號1F","websiteUri":"","name":"FEED ZONE CAFE 運動早午餐","lat":24.9932497,"lng":121.5740364},{"types":"pizza_restaurant,italian_restaurant,restaurant,point_of_interest,food,establishment","formattedAddress":"No. 38號, Muzha Road, Section 4, Wenshan District, Taipei City, Taiwan 116","websiteUri":"https://www.facebook.com/chibupizza/","name":"Mai Hsiang Yuen Handmade Pizza","lat":24.9971841,"lng":121.5738695},{"types":"korean_restaurant,restaurant,point_of_interest,food,establishment","formattedAddress":"No. 27號, Section 1, Xinguang Rd, Wenshan District, Taipei City, Taiwan 116","websiteUri":"https://www.facebook.com/%E9%9F%93%E5%A4%A7%E4%BD%AC%E9%9F%93%E5%BC%8F%E7%B2%BE%E7%B7%BB%E6%96%99%E7%90%86-1703003133266227/?fref=ts","name":"韓大佬","lat":24.9892959,"lng":121.573903},{"types":"brunch_restaurant,restaurant,point_of_interest,food,establishment","formattedAddress":"No. 124號, Section 1, Xinguang Rd, Wenshan District, Taipei City, Taiwan 116","websiteUri":"","name":"初什麼早午餐Brunch","lat":24.991952,"lng":121.573419},{"types":"restaurant,point_of_interest,food,establishment","formattedAddress":"No. 193號, Section 1, Xinguang Rd, Wenshan District, Taipei City, Taiwan 116","websiteUri":"","name":"龐家肉羹","lat":24.9934911,"lng":121.5740274},{"types":"restaurant,point_of_interest,food,establishment","formattedAddress":"No. 30號, Section 2, Xinguang Rd, Wenshan District, Taipei City, Taiwan 116","websiteUri":"","name":"貓熊餐廳 Panda Cafe","lat":24.9987382,"lng":121.5812202},{"types":"restaurant,point_of_interest,food,establishment","formattedAddress":"No. 30號, Section 2, Xinguang Rd, Wenshan District, Taipei City, Taiwan 116","websiteUri":"https://www.mrfossil.com.tw/","name":"化石先生Mr. Fossil 貓熊餐廳","lat":24.9987382,"lng":121.5812202},{"types":"restaurant,point_of_interest,food,establishment","formattedAddress":"No. 74號, Muzha Road, Section 4, Wenshan District, Taipei City, Taiwan 116","websiteUri":"","name":"無招牌麵飯店","lat":24.99775,"lng":121.574357},{"types":"restaurant,point_of_interest,food,establishment","formattedAddress":"No. 17號, Wanan St, Wenshan District, Taipei City, Taiwan 116","websiteUri":"https://www.facebook.com/profile.php?id=104221477905907\u0026ref=br_rs","name":"恰到好處本舖","lat":25.0012529,"lng":121.570638},{"types":"restaurant,point_of_interest,food,establishment","formattedAddress":"No. 117號, Section 1, Xinguang Rd, Wenshan District, Taipei City, Taiwan 116","websiteUri":"https://m.facebook.com/%E4%B8%89%E5%AA%BD%E8%87%AD%E8%87%AD%E9%8D%8B%E6%96%B0%E5%85%89%E5%BA%97-240929566481198/","name":"三媽臭臭鍋（新光店）","lat":24.991361,"lng":121.573818},{"types":"breakfast_restaurant,restaurant,point_of_interest,food,establishment","formattedAddress":"No. 161, Muzha Road, Section 4, Wenshan District, Taipei City, Taiwan 116","websiteUri":"","name":"Tzao Dien Breakfast","lat":24.9999639,"lng":121.5756898},{"types":"brunch_restaurant,restaurant,point_of_interest,food,establishment","formattedAddress":"116, Taiwan, Taipei City, Wenshan District, Section 4, Heping E Rd, 358號1樓","websiteUri":"https://portaly.cc/mk22392950","name":"媽咪廚房Mami's Kitchen","lat":24.999006,"lng":121.5740169}]