[{"types":"chinese_restaurant,restaurant,point_of_interest,food,establishment","formattedAddress":"No. 288號, Section 6, Minquan E Rd, Neihu District, Taipei City, Taiwan 114","websiteUri":"https://www.facebook.com/%E6%9D%B1%E5%BC%95%E5%BF%AB%E5%88%80%E6%89%8B-%E9%BA%B5%E9%A3%9F%E9%A4%A8-102223599090131/","name":"東引快刀手 內湖店 -(人氣排隊美食、必吃午 晚餐 宵夜 滷味、平價麵館)","lat":25.0723391,"lng":121.6053057},{"types":"mediterranean_restaurant,brunch_restaurant,restaurant,point_of_interest,food,establishment","formattedAddress":"115, Taiwan, Taipei City, Nangang District, Jingmao 2nd Rd, 186-1號C棟1樓","websiteUri":"https://bit.ly/2TnTXdR","name":"gonnaEAT 南港店","lat":25.0585864,"lng":121.6148449},{"types":"japanese_restaurant,restaurant,point_of_interest,food,establishment","formattedAddress":"115, Taiwan, Taipei City, Nangang District, Jingmao 2nd Rd, 188-1號2樓","websiteUri":"https://syabuyo.com.tw/index.php","name":"Syabu-yo Nangang CTBC Financial Park","lat":25.0588739,"lng":121.614672},{"types":"chinese_restaurant,restaurant,point_of_interest,food,establishment","formattedAddress":"No. 3號, Alley 7, Lane 106, Donghu Rd, Neihu District, Taipei City, Taiwan 114","websiteUri":"","name":"喜相逢麵館","lat":25.0680702,"lng":121.6149578},{"types":"ramen_restaurant,japanese_restaurant,restaurant,point_of_interest,food,establishment","formattedAddress":"114, Taiwan, Taipei City, Neihu District, Alley 11, Lane 189, Section 3, Kangning Rd, 12號1樓","websiteUri":"https://www.facebook.com/shingaramen","name":"麵屋昕家","lat":25.0706382,"lng":121.6124219},{"types":"restaurant,point_of_interest,food,establishment","formattedAddress":"No. 2, Lane 119, Donghu Rd, Neihu District, Taipei City, Taiwan 114","websiteUri":"https://www.wangdumpling.com.tw/","name":"Wang's Dumpling Restaurant","lat":25.0687038,"lng":121.6166181},{"types":"fast_food_restaurant,brunch_restaurant,hamburger_restaurant,american_restaurant,restaurant,point_of_interest,food,establishment","formattedAddress":"115, Taiwan, Taipei City, Nangang District, Jingmao 2nd Rd, 188-1號1 樓","websiteUri":"https://www.mcdonalds.com/tw/zh-tw.html","name":"McDonald's CTBC Financial Park","lat":25.058845,"lng":121.61526},{"types":"italian_restaurant,restaurant,point_of_interest,food,establishment","formattedAddress":"No. 5號, Lane 33, Donghu Rd, Neihu District, Taipei City, Taiwan 114","websiteUri":"https://www.facebook.com/hhotpasta/","name":"夯麵坊(東湖店)","lat":25.0694088,"lng":121.6135373},{"types":"chinese_restaurant,restaurant,point_of_interest,food,establishment","formattedAddress":"11568, Taiwan, Taipei City, Nangang District, Jingmao 2nd Rd, 186-1號C棟3F","websiteUri":"http://www.kaifun.com.tw/","name":"開飯川食堂 南港店","lat":25.0585798,"lng":121.6147947},{"types":"italian_restaurant,food_store,restaurant,point_of_interest,food,store,establishment","formattedAddress":"No. 36號, Lane 296, Section 6, Minquan E Rd, Neihu District, Taipei City, Taiwan 114","websiteUri":"https://sites.google.com/moonday.com.tw/www","name":"沐對 MoonDay 義式小廚房","lat":25.071771,"lng":121.607105},{"types":"italian_restaurant,restaurant,point_of_interest,food,establishment","formattedAddress":"115, Taiwan, Taipei City, Nangang District, Jingmao 2nd Rd, 166號中國信託金融廣場A棟2樓","websiteUri":"http://www.grazie.com.tw/","name":"Café Grazie Nangang CTBC Financial Park Branch","lat":25.0587648,"lng":121.6177772},{"types":"ramen_restaurant,japanese_restaurant,restaurant,point_of_interest,food,establishment","formattedAddress":"114, Taiwan, Taipei City, Neihu District, Lane 217, Section 3, Kangning Rd, 1號1樓","websiteUri":"https://www.instagram.com/thesaltramen/","name":"長生塩人 東湖","lat":25.0685033,"lng":121.6122641},{"types":"chinese_restaurant,restaurant,point_of_interest,food,establishment","formattedAddress":"115, Taiwan, Taipei City, Nangang District, Jingmao 2nd Rd, 188號2樓","websiteUri":"http://www.siangsian.com.tw/","name":"享鮮餐廳南港分店","lat":25.0588739,"lng":121.614672},{"types":"thai_restaurant,restaurant,point_of_interest,food,establishment","formattedAddress":"1樓C棟, No. 186-1號, Jingmao 2nd Rd, Nangang District, Taipei City, Taiwan 115","websiteUri":"http://www.verythai.com.tw/","name":"Very Thai Restaurant","lat":25.0585798,"lng":121.6147947},{"types":"sushi_restaurant,japanese_restaurant,restaurant,point_of_interest,food,establishment","formattedAddress":"No. 18, Section 3, Kangning Rd, Neihu District, Taipei City, Taiwan 114","websiteUri":"https://www.sushiexpress.com.tw/sushi-express/index","name":"Sushi Express Kangning Restaurant","lat":25.0724339,"lng":121.6073259},{"types":"thai_restaurant,restaurant,point_of_interest,food,establishment","formattedAddress":"No. 469, Section 6, Minquan E Rd, Neihu District, Taipei City, Taiwan 114","websiteUri":"http://www.jollys.tw/","name":"Jolly Brewery + Restaurant","lat":25.0724122,"lng":121.6048035},{"types":"tea_house,restaurant,point_of_interest,food,establishment","formattedAddress":"115, Taiwan, Taipei City, Nangang District, Jingmao 2nd Rd, 188號2樓（B棟","websiteUri":"http://chunshuitang.com.tw/","name":"Chun Shui Tang Nangang Branch","lat":25.0592534,"lng":121.6151831},{"types":"chinese_restaurant,restaurant,point_of_interest,food,establishment","formattedAddress":"No. 186-1, Jingmao 2nd Rd, Nangang District, Taipei City, Taiwan 115","websiteUri":"http://www.1010restaurant.com/index.php","name":"1010 Hunan Cuisine","lat":25.0585798,"lng":121.6147947},{"types":"coffee_shop,cafe,food_store,restaurant,point_of_interest,food,store,establishment","formattedAddress":"No. 561號, Chongyang Rd, Nangang District, Taipei City, Taiwan 115","websiteUri":"https://www.tumazcoffee.com/","name":"TUMAZ 黑熊咖啡『藝伎專家』","lat":25.0632694,"lng":121.6144262},{"types":"restaurant,point_of_interest,food,establishment","formattedAddress":"No. 286號, Section 6, Minquan E Rd, Neihu District, Taipei City, Taiwan 114","websiteUri":"https://www.sichuanlongfu.com.tw/","name":"四川龍府放感情","lat":25.0723504,"lng":121.6052596}]