[{"types":"chinese_restaurant,restaurant,food,point_of_interest,establishment","formattedAddress":"No. 277, Section 2, Xinyi Rd, Zhongzheng District, Taipei City, Taiwan 100","websiteUri":"https://www.dintaifung.com.tw/","name":"Din Tai Fung Xinsheng Branch","lat":25.0339087,"lng":121.5321385},{"types":"meal_takeaway,chinese_restaurant,restaurant,food,point_of_interest,establishment","formattedAddress":"No. 194號, Section 2, Xinyi Rd, Da’an District, Taipei City, Taiwan 106","websiteUri":"https://www.dintaifung.com.tw/","name":"Din Tai Fung Xinyi Branch - TAKEOUT ONLY","lat":25.0335035,"lng":121.530118},{"types":"restaurant,food,point_of_interest,establishment","formattedAddress":"No. 17號, Lane 31, Section 2, Jinshan S Rd, Da’an District, Taipei City, Taiwan 106","websiteUri":"https://www.facebook.com/profile.php?id=100063524573126\u0026mibextid=LQQJ4d","name":"Yongkang Beef Noodles","lat":25.0329419,"lng":121.5281162},{"types":"chinese_restaurant,restaurant,food,point_of_interest,establishment","formattedAddress":"No. 19, Section 2, Hangzhou S Rd, Da’an District, Taipei City, Taiwan 106","websiteUri":"https://www.thebestxiaolongbao.com/","name":"Hang Zhou Xiao Long Bao (Da'an)","lat":25.0340791,"lng":121.5237698},{"types":"chinese_restaurant,restaurant,food,point_of_interest,establishment","formattedAddress":"No. 6, Section 2, Jinan Rd, Zhongzheng District, Taipei City, Taiwan 100","websiteUri":"https://lin.ee/xOahtbx","name":"Takumi Dumplings","lat":25.041298,"lng":121.5268228},{"types":"american_restaurant,coffee_shop,brunch_restaurant,cafe,food_store,restaurant,food,point_of_interest,store,establishment","formattedAddress":"No. 108, Section 2, Ren'ai Rd, Zhongzheng District, Taipei City, Taiwan 100","websiteUri":"https://www.secondfloorcafe.com/","name":"SECOND FLOOR CAFE Renai","lat":25.0379272,"lng":121.5324098},{"types":"chinese_restaurant,restaurant,food,point_of_interest,establishment","formattedAddress":"106, Taiwan, Taipei City, Da’an District, Section 2, Jinshan S Rd, 2號2樓","websiteUri":"https://www.xiangduck.com.tw/index.html","name":"Xiang Duck Taipei Jinshan South Branch","lat":25.0337996,"lng":121.5270334},{"types":"breakfast_restaurant,deli,food_store,restaurant,food,point_of_interest,store,establishment","formattedAddress":"No. 30-1號, Jinhua St, Zhongzheng District, Taipei City, Taiwan 106","websiteUri":"","name":"Ding Yuan Soy Milk","lat":25.0313059,"lng":121.5212093},{"types":"cafe,bar,korean_restaurant,restaurant,food,point_of_interest,establishment","formattedAddress":"No. 9, Lane 79, Section 2, Jianguo S Rd, Da’an District, Taipei City, Taiwan 106","websiteUri":"http://linktr.ee/2jcafe","name":"2J CAFE","lat":25.0309763,"lng":121.5384063},{"types":"mediterranean_restaurant,restaurant,food,point_of_interest,establishment","formattedAddress":"No. 200, Section 2, Xinyi Rd, Da’an District, Taipei City, Taiwan 106","websiteUri":"http://toasteriacafe.com/","name":"TOASTERiA CAFE","lat":25.0334502,"lng":121.5302604},{"types":"chinese_restaurant,restaurant,food,point_of_interest,establishment","formattedAddress":"No. 37號, Section 2, Jinan Rd, Zhongzheng District, Taipei City, Taiwan 100","websiteUri":"http://www.shanghaikitchen.com.tw/","name":"Shanghai Country Restaurant","lat":25.0408708,"lng":121.5297456},{"types":"dessert_restaurant,bakery,dessert_shop,confectionery,food_store,restaurant,food,point_of_interest,wholesaler,store,establishment","formattedAddress":"No. 1號, Lane 141, Section 2, Jinshan S Rd, Da’an District, Taipei City, Taiwan 106","websiteUri":"https://minuit.com.tw/","name":"深夜裡的法國手工甜點","lat":25.0296726,"lng":121.5268376},{"types":"deli,food_store,restaurant,food,point_of_interest,store,establishment","formattedAddress":"No. 1號, Lane 6, Yongkang St, Da’an District, Taipei City, Taiwan 106","websiteUri":"","name":"Tian Jin Onion Pancake","lat":25.0327099,"lng":121.5296171},{"types":"chinese_restaurant,restaurant,food,point_of_interest,establishment","formattedAddress":"No. 61-20號, Section 2, Hangzhou S Rd, Da’an District, Taipei City, Taiwan 106","websiteUri":"https://www.facebook.com/taihelou/","name":"Tai He Lou","lat":25.0302297,"lng":121.5222613},{"types":"chinese_restaurant,restaurant,food,point_of_interest,establishment","formattedAddress":"No. 167號, Section 1, Xinsheng S Rd, Da’an District, Taipei City, Taiwan 106","websiteUri":"http://www.kao-chi.com/","name":"Kao Chi Xinsheng Restaurant","lat":25.0341743,"lng":121.532983},{"types":"asian_restaurant,chinese_restaurant,restaurant,food,point_of_interest,establishment","formattedAddress":"Lane 75, Section 1, Heping E Rd, Da’an District, Taipei City, Taiwan 106","websiteUri":"https://www.facebook.com/LiJinRestaurant/","name":"Taidian Li Jin Restaurant","lat":25.027533,"lng":121.5250959},{"types":"breakfast_restaurant,deli,food_store,restaurant,food,point_of_interest,store,establishment","formattedAddress":"100, Taiwan, Taipei City, Zhongzheng District, Section 2, Hangzhou S Rd, 88號1樓","websiteUri":"","name":"Liu Mama Fantuan","lat":25.0294057,"lng":121.5218533},{"types":"chinese_restaurant,restaurant,food,point_of_interest,establishment","formattedAddress":"No. 28-1, Yongkang St, Da’an District, Taipei City, Taiwan 106","websiteUri":"","name":"Hao Kung Tao Chin Chi Yuan (Da'an)","lat":25.0307503,"lng":121.529454},{"types":"restaurant,food,point_of_interest,establishment","formattedAddress":"No. 94號, Section 2, Ren'ai Rd, Zhongzheng District, Taipei City, Taiwan 100","websiteUri":"http://www.mountain-n-seahouse.com/","name":"Mountain \u0026 Sea House Restaurant","lat":25.038095,"lng":121.5313828},{"types":"restaurant,food,point_of_interest,establishment","formattedAddress":"No. 22號, Lane 10, Section 3, Zhongxiao E Rd, Da’an District, Taipei City, Taiwan 106","websiteUri":"https://www.facebook.com/GatsbyPlus-Cafe-%E8%93%8B%E5%AD%90-%E6%96%B0%E7%94%9F%E5%BA%97-571226613573195/?modal=admin_todo_tour","name":"Gatsby Plus","lat":25.0407583,"lng":121.5333229}]