[{"types":"restaurant,meal_delivery,food_delivery,park,food,point_of_interest,establishment","formattedAddress":"No. 218號, DunHua N Rd, Songshan District, Taipei City, Taiwan 105","websiteUri":"https://inline.app/booking/-LMrceh80alSnzoyoC2c:inline-live-2a466/-LMrcei6xWvUdqI2052q?language=zh-tw","name":"Meowvelous Inc.","lat":25.058508,"lng":121.548769},{"types":"brunch_restaurant,coffee_shop,cafe,restaurant,food_store,food,store,point_of_interest,establishment","formattedAddress":"No. 10號, Lane 27, Section 5, Minsheng E Rd, Songshan District, Taipei City, Taiwan 105","websiteUri":"http://facebook.com/theantipodeanfujin","name":"The Antipodean Fujin","lat":25.0585926,"lng":121.5563347},{"types":"brunch_restaurant,bakery,restaurant,food_store,food,store,point_of_interest,establishment","formattedAddress":"No. 47號, Lane 313, Fuxing N Rd, Songshan District, Taipei City, Taiwan 105","websiteUri":"https://inline.app/booking/-MiuD2NjnunsraI0Heft:inline-live-2/-NTy-QyVCQPC9P_APUC_","name":"Moon Baking studio 松山店","lat":25.0590971,"lng":121.5470969},{"types":"chinese_restaurant,restaurant,food,point_of_interest,establishment","formattedAddress":"105, Taiwan, Taipei City, Songshan District, Lane 165, Dunhua N Rd, 9號1樓","websiteUri":"https://inline.app/booking/-NxuTOP0taCoQTNLDSOB:inline-live-3/-NxuTOcBfhTil0vSRGef","name":"Flower Restaurant","lat":25.0548637,"lng":121.5505647},{"types":"restaurant,food,point_of_interest,establishment","formattedAddress":"10548, Taiwan, Taipei City, Songshan District, Lane 199, Dunhua N Rd, 17號1樓","websiteUri":"https://www.fujintreeshop.com/","name":"Fujin Tree Taiwanese Cuisine \u0026 Champagne (Songshan)","lat":25.0565591,"lng":121.5528441},{"types":"chinese_restaurant,restaurant,food,point_of_interest,establishment","formattedAddress":"No. 118號, Section 3, Minsheng E Rd, Songshan District, Taipei City, Taiwan 105","websiteUri":"http://www.thebestxiaolongbao.com/","name":"Hang Zhou Xiao Long Bao (Minsheng)","lat":25.0574687,"lng":121.5454299},{"types":"steak_house,restaurant,food,point_of_interest,establishment","formattedAddress":"No. 119, Section 3, Minsheng E Rd, Songshan District, Taipei City, Taiwan 105","websiteUri":"https://www.homesteak.com.tw/","name":"Home Steak","lat":25.0580464,"lng":121.5469266},{"types":"steak_house,fine_dining_restaurant,american_restaurant,restaurant,food,point_of_interest,establishment","formattedAddress":"No. 135號, Section 3, Minsheng E Rd, Songshan District, Taipei City, Taiwan 105","websiteUri":"https://www.ruthschris.com.tw/zh-TW/","name":"茹絲葵經典牛排館 Ruth's Chris Steak House","lat":25.0580934,"lng":121.5484515},{"types":"sushi_restaurant,japanese_restaurant,restaurant,food,point_of_interest,establishment","formattedAddress":"105, Taiwan, Taipei City, Songshan District, DunHua N Rd, 167號B1","websiteUri":"http://www.csclub.com.tw/","name":"海峽會","lat":25.0547646,"lng":121.5494129},{"types":"steak_house,american_restaurant,restaurant,food,point_of_interest,establishment","formattedAddress":"105, Taiwan, Taipei City, Songshan District, Section 3, Minsheng E Rd, 156號1F","websiteUri":"http://texasroadhouse.com.tw/","name":"Texas Roadhouse 德州鮮切牛排","lat":25.05737,"lng":121.5477468},{"types":"chinese_restaurant,restaurant,food,point_of_interest,establishment","formattedAddress":"No. 15號, Alley 7, Lane 130, Section 3, Minsheng E Rd, Songshan District, Taipei City, Taiwan 105","websiteUri":"","name":"海真私房菜民生店","lat":25.0567,"lng":121.5468641},{"types":"japanese_restaurant,restaurant,food,point_of_interest,establishment","formattedAddress":"No. 292號, Fuxing N Rd, Zhongshan District, Taipei City, Taiwan 10491","websiteUri":"https://www.xuanbeef2021.com/","name":"宣牛溫體牛肉火鍋(復興店)","lat":25.0592956,"lng":121.5438769},{"types":"italian_restaurant,restaurant,food,point_of_interest,establishment","formattedAddress":"No. 288號, Fuxing N Rd, Zhongshan District, Taipei City, Taiwan 104","websiteUri":"http://www.bellinicaffe.com.tw/","name":"BELLINI CAFFE 台北復興店","lat":25.0590814,"lng":121.5438505},{"types":"restaurant,food,point_of_interest,establishment","formattedAddress":"No. 14號, Alley 3, Lane 55, Section 4, Minsheng E Rd, Songshan District, Taipei City, Taiwan 105009","websiteUri":"https://linktr.ee/rakusaki_hotpot","name":"樂崎火鍋-民生店","lat":25.0582826,"lng":121.5511388},{"types":"korean_restaurant,asian_restaurant,meal_delivery,food_delivery,chinese_restaurant,restaurant,food,point_of_interest,establishment","formattedAddress":"10491, Taiwan, Taipei City, Zhongshan District, Section 3, Minquan E Rd, 47號1樓","websiteUri":"https://www.facebook.com/HanhwawonTaiwan/","name":"韓華園 韓式中華料理—民權店","lat":25.062549,"lng":121.5428464},{"types":"fast_food_restaurant,hamburger_restaurant,brunch_restaurant,american_restaurant,restaurant,food,point_of_interest,establishment","formattedAddress":"No. 135號, Section 3, Minsheng E Rd, Songshan District, Taipei City, Taiwan 105","websiteUri":"https://www.mcdonalds.com/tw/zh-tw.html","name":"McDonald's Taipei Minsheng","lat":25.0580934,"lng":121.5484515},{"types":"japanese_restaurant,restaurant,food,point_of_interest,establishment","formattedAddress":"No. 375號, Fuxing N Rd, Songshan District, Taipei City, Taiwan 105","websiteUri":"https://www.tokiya.com.tw/","name":"Tokiya Taipei Fuxing North Restaurant","lat":25.0627371,"lng":121.5446623},{"types":"restaurant,food,point_of_interest,establishment","formattedAddress":"104, Taiwan, Taipei City, Zhongshan District, Lane 60, Section 3, Minquan E Rd, 9號1樓","websiteUri":"https://linktr.ee/rujiao","name":"如嬌 花膠雞．鍋物 民權一店","lat":25.0609117,"lng":121.5425029},{"types":"italian_restaurant,restaurant,food_store,food,store,point_of_interest,establishment","formattedAddress":"No. 9, Lane 113, Section 3, Minsheng E Rd, Songshan District, Taipei City, Taiwan 105","websiteUri":"https://www.facebook.com/INLULURESTAURANT","name":"Lulu Restaurant","lat":25.0586211,"lng":121.546255},{"types":"thai_restaurant,restaurant,food,point_of_interest,establishment","formattedAddress":"No. 319號, Fuxing N Rd, Songshan District, Taipei City, Taiwan 105","websiteUri":"http://www.verythai.com.tw/","name":"Very Thai Fuxing Restaurant","lat":25.0591488,"lng":121.5444392}]