[{"types":"asian_restaurant,chinese_restaurant,restaurant,food,point_of_interest,establishment","formattedAddress":"10491, Taiwan, Taipei City, Zhongshan District, Section 1, Nanjing E Rd, 92號2樓","websiteUri":"https://www.citystar.com.tw/branch","name":"Luckstar 24Hr HK Style Restaurant","lat":25.0519063,"lng":121.5260228},{"types":"chinese_restaurant,restaurant,food,point_of_interest,establishment","formattedAddress":"No. 18-1號, Lane 105, Section 1, Zhongshan N Rd, Zhongshan District, Taipei City, Taiwan 10491","websiteUri":"http://www.dragon.taipei/","name":"Dragon Restaurant","lat":25.0503994,"lng":121.5244649},{"types":"supermarket,deli,asian_grocery_store,grocery_store,japanese_restaurant,confectionery,food_store,restaurant,food,point_of_interest,store,establishment","formattedAddress":"100, Taiwan, Taipei City, Zhongzheng District, Section 1, Bade Rd, 55號B1","websiteUri":"https://www.dondondonki.com/tw/","name":"DON DON DONKI Zhongxiao Xinsheng Store","lat":25.0445051,"lng":121.5324739},{"types":"asian_restaurant,restaurant,food,point_of_interest,establishment","formattedAddress":"No. 105號, Jilin Rd, Zhongshan District, Taipei City, Taiwan 104","websiteUri":"https://inline.app/order/-MifI7VdrRMtQOLQDX-l:inline-live-2/-MifI7evstsIMDdgUsZU","name":"A Cheng Goose","lat":25.0563881,"lng":121.5304049},{"types":"bar_and_grill,cafeteria,bar,restaurant,food,point_of_interest,establishment","formattedAddress":"104, Taiwan, Taipei City, Zhongshan District, SongJiang Rd, 152號3樓","websiteUri":"https://www.facebook.com/%E5%A4%A7%E6%88%88%E5%A3%81%E8%92%99%E5%8F%A4%E7%83%A4%E8%82%89-112839143771439/","name":"Da Gobi Mongolian BBQ","lat":25.0542965,"lng":121.5328522},{"types":"chinese_restaurant,restaurant,food,point_of_interest,establishment","formattedAddress":"No. 55號, Changchun Rd, Zhongshan District, Taipei City, Taiwan 10491","websiteUri":"https://www.facebook.com/%E9%9B%9E%E5%AE%B6%E8%8E%8A-279425032095/","name":"Chi Chia Chuang (Changchun Road)","lat":25.0550418,"lng":121.5264221},{"types":"vegetarian_restaurant,restaurant,food,point_of_interest,establishment","formattedAddress":"No. 128號, SongJiang Rd, Zhongshan District, Taipei City, Taiwan 104","websiteUri":"https://www.ysvege.com/","name":"Yang Shin Vegetarian Restaurant","lat":25.0527453,"lng":121.5327565},{"types":"japanese_restaurant,restaurant,food,point_of_interest,establishment","formattedAddress":"No. 13, Lane 121, Section 1, Zhongshan N Rd, Zhongshan District, Taipei City, Taiwan 10491","websiteUri":"","name":"肥前屋","lat":25.0511029,"lng":121.5237101},{"types":"restaurant,food,point_of_interest,establishment","formattedAddress":"No. 81號, ChangAn East Rd Section 2, Zhongshan District, Taipei City, Taiwan 10491","websiteUri":"","name":"萬客什鍋 長安東店","lat":25.0485289,"lng":121.5344669},{"types":"japanese_restaurant,restaurant,food,point_of_interest,establishment","formattedAddress":"No. 9號, Section 2, Zhongxiao E Rd, Zhongzheng District, Taipei City, Taiwan 100","websiteUri":"https://reurl.cc/b3x0Dv","name":"Hikiniku to Come (Taipei)","lat":25.044028,"lng":121.527395},{"types":"hotel,lodging,restaurant,food,point_of_interest,establishment","formattedAddress":"No. 8號, Section 3, Nanjing E Rd, Zhongshan District, Taipei City, Taiwan 104","websiteUri":"http://grandnanjing.greenworldhotels.com/","name":"Green World Hotel Grand Nanjing","lat":25.0517484,"lng":121.5373432},{"types":"sushi_restaurant,japanese_restaurant,restaurant,food,point_of_interest,establishment","formattedAddress":"10491, Taiwan, Taipei City, Zhongshan District, Section 2, Nanjing E Rd, 101號B1F","websiteUri":"https://kurasushi.tw/shops","name":"KURA SUSHI Songjiang Nanjing Branch","lat":25.0522172,"lng":121.532589},{"types":"chinese_restaurant,restaurant,food,point_of_interest,establishment","formattedAddress":"No. 45, Section 2, Nanjing E Rd, Zhongshan District, Taipei City, Taiwan 10491","websiteUri":"","name":"Old Sichuan Nanjing Restaurant","lat":25.0522911,"lng":121.5294282},{"types":"ramen_restaurant,japanese_restaurant,restaurant,food,point_of_interest,establishment","formattedAddress":"No. 105-1號, Linsen N Rd, Zhongshan District, Taipei City, Taiwan 10491","websiteUri":"https://chikumo-ramen.com/zh-tw/","name":"Menya Chikumo","lat":25.0502412,"lng":121.5251016},{"types":"hotel,lodging,restaurant,food,point_of_interest,establishment","formattedAddress":"No. 7號, Section 2, Jianguo N Rd, Zhongshan District, Taipei City, Taiwan 10491","websiteUri":"https://www.hcpt.com.tw/","name":"Hamp Court Palace Taipei","lat":25.0527114,"lng":121.5372562},{"types":"thai_restaurant,restaurant,food,point_of_interest,establishment","formattedAddress":"104, Taiwan, Taipei City, Zhongshan District, Lane 21, Section 2, Nanjing E Rd, 24號1樓","websiteUri":"https://www.facebook.com/KanoKwanLee1985/","name":"Kanokwan Thai Noodle","lat":25.0529556,"lng":121.5286727},{"types":"sushi_restaurant,japanese_restaurant,restaurant,food,point_of_interest,establishment","formattedAddress":"10491, Taiwan, Taipei City, Zhongshan District, SongJiang Rd, 61-1號2樓","websiteUri":"http://www.sushiro.com.tw/","name":"SUSHIRO Songjiang Changan Branch","lat":25.0485793,"lng":121.5333602},{"types":"seafood_restaurant,chinese_restaurant,restaurant,food,point_of_interest,establishment","formattedAddress":"No. 99, Section 1, Chang'an E Rd, Zhongshan District, Taipei City, Taiwan 10491","websiteUri":"https://www.facebook.com/pages/%E8%87%A8%E6%B4%8B%E6%B8%AF%E7%94%9F%E7%8C%9B%E6%B4%BB%E6%B5%B7%E9%AE%AE%E7%86%B1%E7%82%92/184155278283408","name":"臨洋港生猛活海鮮長安店","lat":25.0482441,"lng":121.5290112},{"types":"chinese_restaurant,restaurant,food,point_of_interest,establishment","formattedAddress":"No. 40號, Xing'an St, Zhongshan District, Taipei City, Taiwan 10479","websiteUri":"https://www.instagram.com/glybistro/","name":"猓玀苑","lat":25.0560382,"lng":121.5387892},{"types":"hotel,lodging,chinese_restaurant,restaurant,food,point_of_interest,establishment","formattedAddress":"No. 63號, SongJiang Rd, Zhongshan District, Taipei City, Taiwan 10455","websiteUri":"https://www.evergreen-hotels.com/branch2/taipei","name":"Evergreen Laurel Hotel Taipei","lat":25.0488076,"lng":121.5331945}]