[{"types":"bowling_alley,sports_complex,restaurant,food,sports_activity_location,point_of_interest,establishment","formattedAddress":"No. 83號, Section 2, Yanping N Rd, Datong District, Taipei City, Taiwan 103","websiteUri":"https://www.newcbparty.com/","name":"星聚點KTV台北旗艦館+星聚點保齡球館","lat":25.0561412,"lng":121.5117346},{"types":"chinese_restaurant,asian_restaurant,restaurant,food,point_of_interest,establishment","formattedAddress":"No. 34之1號, Shuangcheng St, Zhongshan District, Taipei City, Taiwan 10491","websiteUri":"https://www.shinyeh.com.tw/content/zh/brand/Index.aspx?BrandId=1","name":"Shin Yeh Taiwanese Cuisine Main Restaurant","lat":25.063034,"lng":121.5244775},{"types":"chinese_restaurant,restaurant,food,point_of_interest,establishment","formattedAddress":"No. 123號, Jinzhou St, Zhongshan District, Taipei City, Taiwan 104","websiteUri":"","name":"Tseng Family Soy Milk","lat":25.060508,"lng":121.5288262},{"types":"hotel,american_restaurant,bar,lodging,restaurant,food,point_of_interest,establishment","formattedAddress":"No. 57-1號, Section 2, Zhongshan N Rd, Zhongshan District, Taipei City, Taiwan 10412","websiteUri":"https://www.amba-hotels.com/en/zhongshan/","name":"amba Taipei Zhongshan 台北中山意舍酒店","lat":25.0557045,"lng":121.5230059},{"types":"deli,food_store,restaurant,food,store,point_of_interest,establishment","formattedAddress":"No. 28號, Lane 183, Section 2, Zhongshan N Rd, Zhongshan District, Taipei City, Taiwan 104","websiteUri":"https://www.instagram.com/huang_ji_?igsh=MWZmd2F2YXFlY3NkZg==","name":"Huang Ji Braised Pork","lat":25.0636732,"lng":121.5241737},{"types":"seafood_restaurant,restaurant,food,point_of_interest,establishment","formattedAddress":"No. 59, Section 3, Zhongshan N Rd, Zhongshan District, Taipei City, Taiwan 104","websiteUri":"http://www.hpw.com.tw/","name":"Hai Bawang Restaurant","lat":25.0687067,"lng":121.5232921},{"types":"seafood_restaurant,chinese_restaurant,japanese_restaurant,restaurant,food,point_of_interest,establishment","formattedAddress":"No. 52號, Section 1, Minsheng E Rd, Zhongshan District, Taipei City, Taiwan 104011","websiteUri":"http://www.gandou.com.tw/","name":"Gandou Zhongshan Branch","lat":25.0579236,"lng":121.5248839},{"types":"restaurant,food,point_of_interest,establishment","formattedAddress":"No. 36之1號, Section 2, Zhongshan N Rd, Zhongshan District, Taipei City, Taiwan 104","websiteUri":"https://www.wulao.com.tw/","name":"Wulao Hotpot Taipei Zhongshan Branch","lat":25.0526041,"lng":121.5226127},{"types":"french_restaurant,japanese_restaurant,restaurant,food,point_of_interest,establishment","formattedAddress":"No. 44號, Section 2, Zhongshan N Rd, Zhongshan District, Taipei City, Taiwan 10491","websiteUri":"http://www.chamonix.com.tw/","name":"CHAMONIX Taipei Zhongshan North Branch","lat":25.0551969,"lng":121.5223734},{"types":"fast_food_restaurant,hamburger_restaurant,brunch_restaurant,american_restaurant,restaurant,food,point_of_interest,establishment","formattedAddress":"104, Taiwan, Taipei City, Zhongshan District, Linsen N Rd, 413號1樓","websiteUri":"https://www.mcdonalds.com/tw/zh-tw.html","name":"McDonald's Linsen 3rd","lat":25.059864,"lng":121.525773},{"types":"hotel,buffet_restaurant,lodging,restaurant,food,point_of_interest,establishment","formattedAddress":"103, Taiwan, Taipei City, Datong District, Section 3, Chengde Rd, 49號捷運 : 淡水線(紅)/中蘆線(橘民權西路站1號出口(有電扶梯)：步行約５分鐘即可到達","websiteUri":"https://www.santoshotel.com/","name":"Santos Hotel","lat":25.0628632,"lng":121.5197213},{"types":"restaurant,food,point_of_interest,establishment","formattedAddress":"No. 14號, Jinzhou St, Zhongshan District, Taipei City, Taiwan 104","websiteUri":"https://instagram.com/jitang_rong","name":"雞湯榮麵食館","lat":25.0602382,"lng":121.5238835},{"types":"american_restaurant,restaurant,food,point_of_interest,establishment","formattedAddress":"No. 22號, Lane 16, Section 2, Zhongshan N Rd, Zhongshan District, Taipei City, Taiwan 104","websiteUri":"","name":"Second Floor Cafe","lat":25.0530878,"lng":121.5223829},{"types":"dessert_shop,dessert_restaurant,confectionery,food_store,restaurant,food,store,point_of_interest,establishment","formattedAddress":"No. 49號, Ningxia Rd, Datong District, Taipei City, Taiwan 103","websiteUri":"","name":"Beans Village","lat":25.057382,"lng":121.5155865},{"types":"sushi_restaurant,japanese_restaurant,restaurant,food,point_of_interest,establishment","formattedAddress":"103022, Taiwan, Taipei City, Datong District, Nanjing W Rd, 57號2樓","websiteUri":"https://www.kurasushi.tw/","name":"KURA SUSHI Zhongshan Nanxi Branch","lat":25.0531069,"lng":121.5193384},{"types":"coffee_shop,cafe,japanese_restaurant,food_store,restaurant,food,store,point_of_interest,establishment","formattedAddress":"No. 4號, Lane 8, Chifeng St, Datong District, Taipei City, Taiwan 103","websiteUri":"https://wakuwaku-burger-pasta.tw/","name":"waku waku pasta Chifeng","lat":25.0538231,"lng":121.5191253},{"types":"chinese_restaurant,restaurant,food,point_of_interest,establishment","formattedAddress":"104, Taiwan, Taipei City, Zhongshan District, Section 2, Zhongshan N Rd, 112號2樓","websiteUri":"https://www.facebook.com/ren.he.yuan","name":"Jen Ho Yuan","lat":25.0608263,"lng":121.5224875},{"types":"deli,food_store,restaurant,food,store,point_of_interest,establishment","formattedAddress":"No. 153號, Minsheng W Rd, Datong District, Taipei City, Taiwan 103","websiteUri":"https://atongabao.waca.tw/","name":"阿桐阿寶四神湯","lat":25.0574281,"lng":121.5176306},{"types":"chinese_restaurant,restaurant,food,point_of_interest,establishment","formattedAddress":"103, Taiwan, Taipei City, Datong District, Section 2, Chengde Rd, 120號1樓","websiteUri":"https://www.facebook.com/%E5%B7%9D%E7%95%9D%E5%9C%92%E9%BA%B5%E9%A3%9F%E9%A4%A8-298639763563980/","name":"Chuan Mu Yuan","lat":25.0588524,"lng":121.5179749},{"types":"restaurant,food,point_of_interest,establishment","formattedAddress":"No. 18, Tianxiang Rd, Zhongshan District, Taipei City, Taiwan 104","websiteUri":"https://rink.cc/hhi4s","name":"下港吔羊肉專賣店","lat":25.0610658,"lng":121.5209265}]