[{"types":"fast_food_restaurant,hamburger_restaurant,brunch_restaurant,american_restaurant,restaurant,food,point_of_interest,establishment","formattedAddress":"No. 792號, Section 7, New Taipei Blvd, Xinzhuang District, New Taipei City, Taiwan 242","websiteUri":"https://www.mcdonalds.com/tw/zh-tw.html","name":"McDonald's Xinzhuang Zhongshan","lat":25.024341,"lng":121.4128939},{"types":"restaurant,food,point_of_interest,establishment","formattedAddress":"No. 730-18號, Zhongzheng Rd, Xinzhuang District, New Taipei City, Taiwan 242","websiteUri":"https://www.facebook.com/fa0229026322","name":"魯肉發無刺虱目魚粥","lat":25.0234409,"lng":121.4141559},{"types":"restaurant,food,point_of_interest,establishment","formattedAddress":"No. 668號, Zhongzheng Rd, Shulin District, New Taipei City, Taiwan 238","websiteUri":"https://www.facebook.com/722955374501707/","name":"曾家豬肚雞火鍋","lat":25.016876,"lng":121.4096999},{"types":"banquet_hall,chinese_restaurant,event_venue,restaurant,food,point_of_interest,establishment","formattedAddress":"No. 1號, Sanjun St, Shulin District, New Taipei City, Taiwan 238","websiteUri":"http://www.shuangyanwr.com/","name":"雙岩幸福囍事會館","lat":25.0154598,"lng":121.410868},{"types":"korean_restaurant,restaurant,food,point_of_interest,establishment","formattedAddress":"No. 889-2號, Zhongzheng Rd, Xinzhuang District, New Taipei City, Taiwan 242","websiteUri":"https://www.facebook.com/%E9%9F%93%E9%9B%9E%E9%9B%9E%E6%B1%9F%E5%8E%9F%E9%81%93-%E5%AE%97%EC%9D%8C%EC%8B%9D%E5%90%AB%E5%90%83%E4%B8%80%E9%9A%BB%E9%9B%9E-106456301173584/","name":"朋月栻-韓雞雞–江原道-宗음식 韓吃一隻雞火鍋鍋物｜新莊創始店（韓國一隻雞鍋物）","lat":25.0236858,"lng":121.4154204},{"types":"fast_food_restaurant,hamburger_restaurant,brunch_restaurant,american_restaurant,restaurant,food,point_of_interest,establishment","formattedAddress":"No. 877-5號, Zhongzheng Rd, Xinzhuang District, New Taipei City, Taiwan 242","websiteUri":"https://www.mcdonalds.com/tw/zh-tw.html","name":"McDonald's","lat":25.0264324,"lng":121.4180032},{"types":"restaurant,food,point_of_interest,establishment","formattedAddress":"No. 111號, Section 1, Wanshou Rd, Guishan District, Taoyuan City, Taiwan 333","websiteUri":"http://www.noble.com.tw/","name":"貴族世家 龜山迴龍鮮饌店","lat":25.0189217,"lng":121.4089609},{"types":"japanese_restaurant,bar_and_grill,bar,restaurant,food,point_of_interest,establishment","formattedAddress":"No. 891-17號, Zhongzheng Rd, Xinzhuang District, New Taipei City, Taiwan 242","websiteUri":"https://www.facebook.com/%E7%B1%B3-%E7%82%AD%E7%81%AB%E7%87%92%E8%82%89%E5%B0%8F%E9%85%92%E9%A4%A8-%E6%95%B8%E5%A3%B9%E6%95%B8%E8%B2%B3%E5%BA%97-698758250286583/","name":"米炭火燒肉小酒館 新莊迴龍店","lat":25.0409172,"lng":121.4640412},{"types":"japanese_restaurant,restaurant,food,point_of_interest,establishment","formattedAddress":"No. 881-10號, Zhongzheng Rd, Xinzhuang District, New Taipei City, Taiwan 242","websiteUri":"https://www.facebook.com/auizakayashinjo/","name":"鏊屋 串燒/壽司/酒場 新莊店","lat":25.0252103,"lng":121.4174368},{"types":"japanese_restaurant,restaurant,food,point_of_interest,establishment","formattedAddress":"No. 810號, Zhongzheng Rd, Xinzhuang District, New Taipei City, Taiwan 242","websiteUri":"https://www.facebook.com/1611567349115895/","name":"99泰式燒烤火鍋 迴龍店","lat":25.0210104,"lng":121.4099343},{"types":"restaurant,food,point_of_interest,establishment","formattedAddress":"242, Taiwan, New Taipei City, Xinzhuang District, Fuguo Rd, 101號1樓","websiteUri":"","name":"鼎鼎香涮涮屋-富國店","lat":25.0257083,"lng":121.4211642},{"types":"chinese_restaurant,restaurant,food,point_of_interest,establishment","formattedAddress":"No. 319號, Longan Rd, Xinzhuang District, New Taipei City, Taiwan 242","websiteUri":"https://www.facebook.com/top2food","name":"Two Food Restaurant Xinzhuang Long'an Branch","lat":25.0195526,"lng":121.4217577},{"types":"brunch_restaurant,restaurant,food_store,food,store,point_of_interest,establishment","formattedAddress":"No. 848號, Section 7, New Taipei Blvd, Xinzhuang District, New Taipei City, Taiwan 242","websiteUri":"https://lin.ee/Szn8bSx","name":"成真咖啡 新莊迴龍店","lat":25.0234712,"lng":121.413671},{"types":"restaurant,food,point_of_interest,establishment","formattedAddress":"No. 1號, Longan Rd, Xinzhuang District, New Taipei City, Taiwan 242","websiteUri":"http://www.2907-2680.07168tw.net/","name":"黃金海岸活蝦之家","lat":25.0230845,"lng":121.4143788},{"types":"japanese_restaurant,restaurant,food,point_of_interest,establishment","formattedAddress":"No. 101號, Shuangfeng Rd, Xinzhuang District, New Taipei City, Taiwan 242","websiteUri":"https://www.facebook.com/profile.php?id=100095281975696\u0026mibextid=D4KYlr","name":"藏九居（居酒屋）燒烤／壽司／酒場","lat":25.0279367,"lng":121.4143656},{"types":"restaurant,hamburger_restaurant,american_restaurant,japanese_restaurant,food,point_of_interest,establishment","formattedAddress":"No. 690號, Zhongzheng Rd, Shulin District, New Taipei City, Taiwan 238","websiteUri":"https://m.facebook.com/100088489086420/","name":"A.M.P.M. - Huilong","lat":25.0173252,"lng":121.4095061},{"types":"breakfast_restaurant,restaurant,food,point_of_interest,establishment","formattedAddress":"No. 6號, Alley 4, Lane 212, Siwei Rd, Xinzhuang District, New Taipei City, Taiwan 242","websiteUri":"https://www.facebook.com/ajbrunch/","name":"A\u0026J Brunch燕覺早午","lat":25.0205033,"lng":121.421232},{"types":"breakfast_restaurant,restaurant,food,point_of_interest,establishment","formattedAddress":"No. 12, Shuangfeng Rd, Xinzhuang District, New Taipei City, Taiwan 242","websiteUri":"","name":"永和豆漿大王","lat":25.0270539,"lng":121.4170022},{"types":"japanese_restaurant,restaurant,food,point_of_interest,establishment","formattedAddress":"No. 116號, Tianxiang St, Xinzhuang District, New Taipei City, Taiwan 242","websiteUri":"https://linktr.ee/huahouse","name":"椛宅鍋物｜涮食","lat":25.0297879,"lng":121.4147085},{"types":"restaurant,food,point_of_interest,establishment","formattedAddress":"No. 20號, Shuangfeng Rd, Xinzhuang District, New Taipei City, Taiwan 242","websiteUri":"","name":"20號小廚","lat":25.0270563,"lng":121.4168376}]