[{"types":"cafeteria,brunch_restaurant,restaurant,point_of_interest,food,establishment","formattedAddress":"242, Taiwan, New Taipei City, Xinzhuang District, Zhongzheng Rd, 1號3樓","websiteUri":"http://www.ikea.com/tw/zh/store/hsin_chuang/restaurant","name":"IKEA Swedish Restaurant Xinzhuang Store","lat":25.0415073,"lng":121.4652713},{"types":"sushi_restaurant,japanese_restaurant,restaurant,point_of_interest,food,establishment","formattedAddress":"No. 168號, Siyuan Rd, Xinzhuang District, New Taipei City, Taiwan 242033","websiteUri":"https://www.kurasushi.tw/","name":"Kura Sushi Xinzhuang Siyuan Road","lat":25.0492381,"lng":121.4601813},{"types":"restaurant,point_of_interest,food,establishment","formattedAddress":"No. 128號, Gongyuan Rd, Xinzhuang District, New Taipei City, Taiwan 242","websiteUri":"https://www.facebook.com/%E5%93%81%E9%83%BD%E4%B8%B2%E7%87%92%E6%94%A4-%E6%96%B0%E8%8E%8A-110882174598950/","name":"品都串燒攤 新莊","lat":25.0399053,"lng":121.4520063},{"types":"wedding_venue,banquet_hall,chinese_restaurant,event_venue,restaurant,point_of_interest,food,establishment","formattedAddress":"No. 40, Siyuan Rd, Xinzhuang District, New Taipei City, Taiwan 242","websiteUri":"https://www.amazinghall.com.tw/","name":"Amazing Hall Xinzhuang","lat":25.0429784,"lng":121.4607157},{"types":"thai_restaurant,restaurant,point_of_interest,food,establishment","formattedAddress":"No. 86號, Huacheng Rd, Xinzhuang District, New Taipei City, Taiwan 242","websiteUri":"","name":"Lotus Thai eateries","lat":25.0438502,"lng":121.4652581},{"types":"steak_house,restaurant,point_of_interest,food,establishment","formattedAddress":"No. 182號, Section 1, Zhonghua Rd, Xinzhuang District, New Taipei City, Taiwan 242","websiteUri":"http://www.noble.com.tw/","name":"貴族世家-體育館店","lat":25.0422532,"lng":121.4528355},{"types":"restaurant,point_of_interest,food,establishment","formattedAddress":"No. 203號, Section 1, Fuxing Rd, Xinzhuang District, New Taipei City, Taiwan 24242","websiteUri":"https://lin.ee/V6u1F6V","name":"Brother Han Stone Hot Pot","lat":25.0437681,"lng":121.4521582},{"types":"restaurant,banquet_hall,event_venue,point_of_interest,food,establishment","formattedAddress":"242, Taiwan, New Taipei City, Xinzhuang District, Zhongzheng Rd, 80-1號號B1","websiteUri":"https://xinhau.com.tw/","name":"新濠食府會館","lat":25.037737,"lng":121.4579793},{"types":"fast_food_restaurant,brunch_restaurant,hamburger_restaurant,american_restaurant,restaurant,point_of_interest,food,establishment","formattedAddress":"No. 306號, Zhonggang Rd, Xinzhuang District, New Taipei City, Taiwan 242","websiteUri":"https://www.mcdonalds.com/tw/zh-tw.html","name":"McDonald's Xinzhuang 2nd Branch","lat":25.0451323,"lng":121.4527147},{"types":"restaurant,point_of_interest,food,establishment","formattedAddress":"242, Taiwan, New Taipei City, Xinzhuang District, Zhongzheng Rd, 72號2樓","websiteUri":"https://www.jhujian.com.tw/","name":"Jhujian Xinzhuang Zhongzheng Branch","lat":25.0380829,"lng":121.4588218},{"types":"chinese_restaurant,korean_restaurant,restaurant,point_of_interest,food,establishment","formattedAddress":"No. 303號, Siyuan Rd, Xinzhuang District, New Taipei City, Taiwan 24250","websiteUri":"https://www.facebook.com/%E4%BC%99%E9%A3%9F%E9%A4%90%E9%A4%A8-104663754657951","name":"伙食餐館 - 涼麵、拌麵專賣店","lat":25.0487959,"lng":121.4596129},{"types":"brunch_restaurant,restaurant,point_of_interest,food,establishment","formattedAddress":"242, Taiwan, New Taipei City, Xinzhuang District, Siyuan Rd, 115號一樓","websiteUri":"https://www.facebook.com/EGGandBUN","name":"EGG BUN Breakfast Sandwich \u0026 Espresso 新莊","lat":25.042082,"lng":121.4596828},{"types":"italian_restaurant,restaurant,point_of_interest,food,establishment","formattedAddress":"No. 260號, Zhonggang Rd, Xinzhuang District, New Taipei City, Taiwan 242","websiteUri":"https://www.facebook.com/FuLeLiQi","name":"富樂里奇義大利麵餐廳","lat":25.0436787,"lng":121.4536957},{"types":"italian_restaurant,restaurant,point_of_interest,food,establishment","formattedAddress":"No. 41-1號, Section 1, Zhonghua Rd, Xinzhuang District, New Taipei City, Taiwan 242","websiteUri":"https://www.facebook.com/%E8%8F%B2%E6%96%AF%E7%89%B9%E7%BE%A9%E5%BC%8F%E6%96%99%E7%90%86-101630755474888/","name":"菲斯特義式料理餐廳","lat":25.0379408,"lng":121.4518896},{"types":"japanese_restaurant,restaurant,point_of_interest,food,establishment","formattedAddress":"No. 57號, Zhongzheng Rd, Xinzhuang District, New Taipei City, Taiwan 242","websiteUri":"https://inline.app/booking/-MqXdPcJFmL4fQ7HLyAz:inline-live-2/-MqXdPneTXwTgz50mjtF?language=zh-tw","name":"禾舍日式炭烤｜新莊美食｜新北推薦燒肉｜新莊串烤｜新莊燒烤｜新莊居酒屋 (禾舍日式炭烤),","lat":25.039559,"lng":121.4620204},{"types":"korean_restaurant,restaurant,point_of_interest,food,establishment","formattedAddress":"No. 276號, Zhonggang Rd, Xinzhuang District, New Taipei City, Taiwan 242","websiteUri":"https://www.facebook.com/profile.php?id=100067849725831\u0026mibextid=9R9pXO","name":"海雲韓式料理","lat":25.0441452,"lng":121.4531762},{"types":"american_restaurant,restaurant,point_of_interest,food,establishment","formattedAddress":"No. 558號, Huajiang 1st Rd, Banqiao District, New Taipei City, Taiwan 220","websiteUri":"http://www.fukdupchicken.com/","name":"法大炸雞 Fukdup Fried Chicken - 板橋華江店","lat":25.0330522,"lng":121.4656694},{"types":"chinese_restaurant,restaurant,point_of_interest,food,establishment","formattedAddress":"No. 231號, Zili St, Xinzhuang District, New Taipei City, Taiwan 242","websiteUri":"https://www.facebook.com/22Dimsum","name":"點22 港式點心專賣店-新莊自立店","lat":25.0455602,"lng":121.4580654},{"types":"seafood_restaurant,restaurant,point_of_interest,food,establishment","formattedAddress":"No. 98號, Gongyuan Rd, Xinzhuang District, New Taipei City, Taiwan 242","websiteUri":"","name":"龜山島現撈海鮮","lat":25.0397308,"lng":121.4508181},{"types":"breakfast_restaurant,restaurant,point_of_interest,food,establishment","formattedAddress":"Xinzhuang District, New Taipei City, Taiwan 242","websiteUri":"","name":"冠詮早餐","lat":25.0211328,"lng":121.4284756}]